{
"type": "FeatureCollection",
"name": "AddR2",
"crs": { "type": "name", "properties": { "name": "urn:ogc:def:crs:OGC:1.3:CRS84" } },
"features": [
{ "type": "Feature", "properties": { "address": "8500 ESSINGTON AVE", "year": 2011.0, "permitdescription": "ADDITION PERMIT" }, "geometry": { "type": "Point", "coordinates": [ -75.23177486305697, 39.880338135909604 ] } },
{ "type": "Feature", "properties": { "address": "8500 ESSINGTON AVE", "year": 2012.0, "permitdescription": "ADDITION PERMIT" }, "geometry": { "type": "Point", "coordinates": [ -75.23177486305697, 39.880338135909604 ] } },
{ "type": "Feature", "properties": { "address": "8500 ESSINGTON AVE", "year": 2013.0, "permitdescription": "ADDITION PERMIT" }, "geometry": { "type": "Point", "coordinates": [ -75.23177486305697, 39.880338135909604 ] } },
{ "type": "Feature", "properties": { "address": "8500 ESSINGTON AVE", "year": 2008.0, "permitdescription": "ADDITION PERMIT" }, "geometry": { "type": "Point", "coordinates": [ -75.23177486305697, 39.880338135909604 ] } },
{ "type": "Feature", "properties": { "address": "4499 S BROAD ST", "year": 2008.0, "permitdescription": "ADDITION PERMIT" }, "geometry": { "type": "Point", "coordinates": [ -75.172032842790287, 39.891727953536432 ] } },
{ "type": "Feature", "properties": { "address": "8107 HARLEY AVE", "year": 2009.0, "permitdescription": "ADDITION PERMIT" }, "geometry": { "type": "Point", "coordinates": [ -75.242455665262483, 39.897438417378993 ] } },
{ "type": "Feature", "properties": { "address": "4300 S 26TH ST", "year": 2013.0, "permitdescription": "ADDITION PERMIT" }, "geometry": { "type": "Point", "coordinates": [ -75.194260393346937, 39.89729347239161 ] } },
{ "type": "Feature", "properties": { "address": "3601 S BROAD ST", "year": 2015.0, "permitdescription": "ADDITION PERMIT" }, "geometry": { "type": "Point", "coordinates": [ -75.171805810819279, 39.901853960899459 ] } },
{ "type": "Feature", "properties": { "address": "3601 S BROAD ST", "year": 2015.0, "permitdescription": "ADDITION PERMIT" }, "geometry": { "type": "Point", "coordinates": [ -75.171805810819279, 39.901853960899459 ] } },
{ "type": "Feature", "properties": { "address": "7235 LINDBERGH BLVD", "year": 2009.0, "permitdescription": "ADDITION PERMIT" }, "geometry": { "type": "Point", "coordinates": [ -75.234153143035655, 39.908319006963126 ] } },
{ "type": "Feature", "properties": { "address": "3200 S LAWRENCE ST", "year": 2008.0, "permitdescription": "ADDITION PERMIT" }, "geometry": { "type": "Point", "coordinates": [ -75.158633460961454, 39.906520892380492 ] } },
{ "type": "Feature", "properties": { "address": "3144 W PASSYUNK AVE", "year": 2008.0, "permitdescription": "ADDITION PERMIT" }, "geometry": { "type": "Point", "coordinates": [ -75.198334771805989, 39.91238198306781 ] } },
{ "type": "Feature", "properties": { "address": "3144 W PASSYUNK AVE", "year": 2012.0, "permitdescription": "ADDITION PERMIT" }, "geometry": { "type": "Point", "coordinates": [ -75.198334771805989, 39.91238198306781 ] } },
{ "type": "Feature", "properties": { "address": "1848 LANVALE PL", "year": 2012.0, "permitdescription": "ADDITION PERMIT" }, "geometry": { "type": "Point", "coordinates": [ -75.179469840077601, 39.911317593263533 ] } },
{ "type": "Feature", "properties": { "address": "3155 S 20TH ST", "year": 2009.0, "permitdescription": "ADDITION PERMIT" }, "geometry": { "type": "Point", "coordinates": [ -75.181976852427624, 39.911473117474678 ] } },
{ "type": "Feature", "properties": { "address": "2945 S CLEVELAND ST", "year": 2011.0, "permitdescription": "ADDITION PERMIT" }, "geometry": { "type": "Point", "coordinates": [ -75.177898355129273, 39.914004974199891 ] } },
{ "type": "Feature", "properties": { "address": "2923 S 13TH ST", "year": 2013.0, "permitdescription": "ADDITION PERMIT" }, "geometry": { "type": "Point", "coordinates": [ -75.1696600830184, 39.913366927488788 ] } },
{ "type": "Feature", "properties": { "address": "3005 S CARLISLE ST", "year": 2014.0, "permitdescription": "ADDITION PERMIT" }, "geometry": { "type": "Point", "coordinates": [ -75.173178151695026, 39.91292096022206 ] } },
{ "type": "Feature", "properties": { "address": "1015 JOHNSTON ST", "year": 2010.0, "permitdescription": "ADDITION PERMIT" }, "geometry": { "type": "Point", "coordinates": [ -75.165975342763247, 39.914947860669898 ] } },
{ "type": "Feature", "properties": { "address": "2810 S ALDER ST", "year": 2013.0, "permitdescription": "ADDITION PERMIT" }, "geometry": { "type": "Point", "coordinates": [ -75.165716738870898, 39.91433588521798 ] } },
{ "type": "Feature", "properties": { "address": "1024 MOLLBORE TER", "year": 2008.0, "permitdescription": "ADDITION PERMIT" }, "geometry": { "type": "Point", "coordinates": [ -75.166213453155621, 39.915157307469784 ] } },
{ "type": "Feature", "properties": { "address": "3103 S 61ST ST", "year": 2014.0, "permitdescription": "ADDITION PERMIT" }, "geometry": { "type": "Point", "coordinates": [ -75.211156091262438, 39.920481647301514 ] } },
{ "type": "Feature", "properties": { "address": "2729 S MARVINE ST", "year": 2013.0, "permitdescription": "ADDITION PERMIT" }, "geometry": { "type": "Point", "coordinates": [ -75.166848918062982, 39.915329624277057 ] } },
{ "type": "Feature", "properties": { "address": "1127 PORTER ST", "year": 2009.0, "permitdescription": "ADDITION PERMIT" }, "geometry": { "type": "Point", "coordinates": [ -75.166305824059137, 39.918974174393377 ] } },
{ "type": "Feature", "properties": { "address": "2544 S PERCY ST", "year": 2015.0, "permitdescription": "ADDITION PERMIT" }, "geometry": { "type": "Point", "coordinates": [ -75.163502954923743, 39.917459189871536 ] } },
{ "type": "Feature", "properties": { "address": "2509 S 4TH ST", "year": 2010.0, "permitdescription": "ADDITION PERMIT" }, "geometry": { "type": "Point", "coordinates": [ -75.153945859811031, 39.916525834258174 ] } },
{ "type": "Feature", "properties": { "address": "347 FITZGERALD ST", "year": 2009.0, "permitdescription": "ADDITION PERMIT" }, "geometry": { "type": "Point", "coordinates": [ -75.153569218173018, 39.919027272393492 ] } },
{ "type": "Feature", "properties": { "address": "6800-06 GREENWAY AVE", "year": 2008.0, "permitdescription": "ADDITION PERMIT" }, "geometry": { "type": "Point", "coordinates": [ -75.239623297551574, 39.923451515086875 ] } },
{ "type": "Feature", "properties": { "address": "2506 S 22ND ST", "year": 2009.0, "permitdescription": "ADDITION PERMIT" }, "geometry": { "type": "Point", "coordinates": [ -75.184187149024041, 39.920830188748845 ] } },
{ "type": "Feature", "properties": { "address": "1925 RITNER ST", "year": 2012.0, "permitdescription": "ADDITION PERMIT" }, "geometry": { "type": "Point", "coordinates": [ -75.179197855518467, 39.921914266066068 ] } },
{ "type": "Feature", "properties": { "address": "2348 S WOODSTOCK ST", "year": 2009.0, "permitdescription": "ADDITION PERMIT" }, "geometry": { "type": "Point", "coordinates": [ -75.180752263837846, 39.922185623514316 ] } },
{ "type": "Feature", "properties": { "address": "2500 S 17TH ST", "year": 2008.0, "permitdescription": "ADDITION PERMIT" }, "geometry": { "type": "Point", "coordinates": [ -75.175866582220038, 39.919952840511762 ] } },
{ "type": "Feature", "properties": { "address": "1700 RITNER ST", "year": 2014.0, "permitdescription": "ADDITION PERMIT" }, "geometry": { "type": "Point", "coordinates": [ -75.175950278873259, 39.920940828393128 ] } },
{ "type": "Feature", "properties": { "address": "1229 TREE ST", "year": 2014.0, "permitdescription": "ADDITION PERMIT" }, "geometry": { "type": "Point", "coordinates": [ -75.167159026395382, 39.922452733697561 ] } },
{ "type": "Feature", "properties": { "address": "1121 TREE ST", "year": 2010.0, "permitdescription": "ADDITION PERMIT" }, "geometry": { "type": "Point", "coordinates": [ -75.165394096935245, 39.922218758679023 ] } },
{ "type": "Feature", "properties": { "address": "1106 CANTRELL ST", "year": 2008.0, "permitdescription": "ADDITION PERMIT" }, "geometry": { "type": "Point", "coordinates": [ -75.164833108094356, 39.923182196038717 ] } },
{ "type": "Feature", "properties": { "address": "2308 S 7TH ST", "year": 2013.0, "permitdescription": "ADDITION PERMIT" }, "geometry": { "type": "Point", "coordinates": [ -75.158983811586083, 39.920151555283873 ] } },
{ "type": "Feature", "properties": { "address": "2013 S 6TH ST", "year": 2013.0, "permitdescription": "ADDITION PERMIT" }, "geometry": { "type": "Point", "coordinates": [ -75.156259578100958, 39.923517281447374 ] } },
{ "type": "Feature", "properties": { "address": "822 WINTON ST", "year": 2008.0, "permitdescription": "ADDITION PERMIT" }, "geometry": { "type": "Point", "coordinates": [ -75.160613647340838, 39.922260765096254 ] } },
{ "type": "Feature", "properties": { "address": "624 JACKSON ST", "year": 2014.0, "permitdescription": "ADDITION PERMIT" }, "geometry": { "type": "Point", "coordinates": [ -75.157670825297828, 39.921390499784167 ] } },
{ "type": "Feature", "properties": { "address": "2010 S PHILIP ST", "year": 2015.0, "permitdescription": "ADDITION PERMIT" }, "geometry": { "type": "Point", "coordinates": [ -75.150365916424391, 39.922804602835313 ] } },
{ "type": "Feature", "properties": { "address": "314 DALY ST", "year": 2009.0, "permitdescription": "ADDITION PERMIT" }, "geometry": { "type": "Point", "coordinates": [ -75.152403538667429, 39.919940335460588 ] } },
{ "type": "Feature", "properties": { "address": "223 TREE ST", "year": 2012.0, "permitdescription": "ADDITION PERMIT" }, "geometry": { "type": "Point", "coordinates": [ -75.150927479646938, 39.920343465501745 ] } },
{ "type": "Feature", "properties": { "address": "353 WOLF ST", "year": 2013.0, "permitdescription": "ADDITION PERMIT" }, "geometry": { "type": "Point", "coordinates": [ -75.153431525985326, 39.919894578232523 ] } },
{ "type": "Feature", "properties": { "address": "409 WOLF ST", "year": 2009.0, "permitdescription": "ADDITION PERMIT" }, "geometry": { "type": "Point", "coordinates": [ -75.154289403862251, 39.920001361837748 ] } },
{ "type": "Feature", "properties": { "address": "221 WOLF ST", "year": 2008.0, "permitdescription": "ADDITION PERMIT" }, "geometry": { "type": "Point", "coordinates": [ -75.151083789515098, 39.919585534966913 ] } },
{ "type": "Feature", "properties": { "address": "347 WOLF ST", "year": 2010.0, "permitdescription": "ADDITION PERMIT" }, "geometry": { "type": "Point", "coordinates": [ -75.153280920998014, 39.919875440779514 ] } },
{ "type": "Feature", "properties": { "address": "332 WOLF ST", "year": 2008.0, "permitdescription": "ADDITION PERMIT" }, "geometry": { "type": "Point", "coordinates": [ -75.153015359999756, 39.919507239268484 ] } },
{ "type": "Feature", "properties": { "address": "114 HOFFMAN ST", "year": 2014.0, "permitdescription": "ADDITION PERMIT" }, "geometry": { "type": "Point", "coordinates": [ -75.148426111629661, 39.923534439349794 ] } },
{ "type": "Feature", "properties": { "address": "140 MERCY ST", "year": 2010.0, "permitdescription": "ADDITION PERMIT" }, "geometry": { "type": "Point", "coordinates": [ -75.14938262279999, 39.922131690928715 ] } },
{ "type": "Feature", "properties": { "address": "100 MCKEAN ST", "year": 2008.0, "permitdescription": "ADDITION PERMIT" }, "geometry": { "type": "Point", "coordinates": [ -75.148274772668302, 39.922677301164143 ] } },
{ "type": "Feature", "properties": { "address": "6000-04 ELMWOOD AVE", "year": 2014.0, "permitdescription": "ADDITION PERMIT" }, "geometry": { "type": "Point", "coordinates": [ -75.223328029228611, 39.926718930452552 ] } },
{ "type": "Feature", "properties": { "address": "3143 W PASSYUNK AVE", "year": 2013.0, "permitdescription": "ADDITION PERMIT" }, "geometry": { "type": "Point", "coordinates": [ -75.203593161776894, 39.926125114811576 ] } },
{ "type": "Feature", "properties": { "address": "3143 W PASSYUNK AVE", "year": 2014.0, "permitdescription": "ADDITION PERMIT" }, "geometry": { "type": "Point", "coordinates": [ -75.203593161776894, 39.926125114811576 ] } },
{ "type": "Feature", "properties": { "address": "2134 SIGEL ST", "year": 2015.0, "permitdescription": "ADDITION PERMIT" }, "geometry": { "type": "Point", "coordinates": [ -75.181504709149692, 39.92872950330068 ] } },
{ "type": "Feature", "properties": { "address": "1929 S BOUVIER ST", "year": 2008.0, "permitdescription": "ADDITION PERMIT" }, "geometry": { "type": "Point", "coordinates": [ -75.175026957876668, 39.926917739405617 ] } },
{ "type": "Feature", "properties": { "address": "1314 SIGEL ST", "year": 2013.0, "permitdescription": "ADDITION PERMIT" }, "geometry": { "type": "Point", "coordinates": [ -75.167702537297373, 39.926944789899068 ] } },
{ "type": "Feature", "properties": { "address": "1811 S 10TH ST", "year": 2014.0, "permitdescription": "ADDITION PERMIT" }, "geometry": { "type": "Point", "coordinates": [ -75.161919354675902, 39.926808753190457 ] } },
{ "type": "Feature", "properties": { "address": "1709 S 10TH ST", "year": 2014.0, "permitdescription": "ADDITION PERMIT" }, "geometry": { "type": "Point", "coordinates": [ -75.161635238680518, 39.928062623225728 ] } },
{ "type": "Feature", "properties": { "address": "640 MOUNTAIN ST", "year": 2014.0, "permitdescription": "ADDITION PERMIT" }, "geometry": { "type": "Point", "coordinates": [ -75.15676346305581, 39.928006687286313 ] } },
{ "type": "Feature", "properties": { "address": "1817 S 6TH ST", "year": 2013.0, "permitdescription": "ADDITION PERMIT" }, "geometry": { "type": "Point", "coordinates": [ -75.155718854763094, 39.925744086343542 ] } },
{ "type": "Feature", "properties": { "address": "1742 S ORIANNA ST", "year": 2011.0, "permitdescription": "ADDITION PERMIT" }, "geometry": { "type": "Point", "coordinates": [ -75.152255690556771, 39.926082910978522 ] } },
{ "type": "Feature", "properties": { "address": "114 MORRIS ST", "year": 2011.0, "permitdescription": "ADDITION PERMIT" }, "geometry": { "type": "Point", "coordinates": [ -75.147834243869383, 39.926356709027338 ] } },
{ "type": "Feature", "properties": { "address": "141 MIFFLIN ST", "year": 2010.0, "permitdescription": "ADDITION PERMIT" }, "geometry": { "type": "Point", "coordinates": [ -75.148974928880747, 39.924324538332279 ] } },
{ "type": "Feature", "properties": { "address": "148 FERNON ST", "year": 2013.0, "permitdescription": "ADDITION PERMIT" }, "geometry": { "type": "Point", "coordinates": [ -75.148701615877727, 39.927051934607626 ] } },
{ "type": "Feature", "properties": { "address": "1635 S 2ND ST", "year": 2013.0, "permitdescription": "ADDITION PERMIT" }, "geometry": { "type": "Point", "coordinates": [ -75.148865040714583, 39.926935469734168 ] } },
{ "type": "Feature", "properties": { "address": "130 GREENWICH ST", "year": 2014.0, "permitdescription": "ADDITION PERMIT" }, "geometry": { "type": "Point", "coordinates": [ -75.148046946335157, 39.928031461401595 ] } },
{ "type": "Feature", "properties": { "address": "1553 S WOODSTOCK ST", "year": 2008.0, "permitdescription": "ADDITION PERMIT" }, "geometry": { "type": "Point", "coordinates": [ -75.178310023782231, 39.931895887949757 ] } },
{ "type": "Feature", "properties": { "address": "1547 S LAMBERT ST", "year": 2008.0, "permitdescription": "ADDITION PERMIT" }, "geometry": { "type": "Point", "coordinates": [ -75.17913003287066, 39.932149878376457 ] } },
{ "type": "Feature", "properties": { "address": "1551 S LAMBERT ST", "year": 2008.0, "permitdescription": "ADDITION PERMIT" }, "geometry": { "type": "Point", "coordinates": [ -75.179146183234323, 39.932077042728736 ] } },
{ "type": "Feature", "properties": { "address": "1511 S 19TH ST", "year": 2014.0, "permitdescription": "ADDITION PERMIT" }, "geometry": { "type": "Point", "coordinates": [ -75.175927189257223, 39.93240362746419 ] } },
{ "type": "Feature", "properties": { "address": "1427 S COLORADO ST", "year": 2013.0, "permitdescription": "ADDITION PERMIT" }, "geometry": { "type": "Point", "coordinates": [ -75.173210221445046, 39.933002257859144 ] } },
{ "type": "Feature", "properties": { "address": "1433 S 18TH ST", "year": 2011.0, "permitdescription": "ADDITION PERMIT" }, "geometry": { "type": "Point", "coordinates": [ -75.174232193838449, 39.932821096506778 ] } },
{ "type": "Feature", "properties": { "address": "1938 MOORE ST", "year": 2012.0, "permitdescription": "ADDITION PERMIT" }, "geometry": { "type": "Point", "coordinates": [ -75.178126685116354, 39.929069365676874 ] } },
{ "type": "Feature", "properties": { "address": "1411 S CHADWICK ST", "year": 2012.0, "permitdescription": "ADDITION PERMIT" }, "geometry": { "type": "Point", "coordinates": [ -75.172047982254028, 39.933004388805877 ] } },
{ "type": "Feature", "properties": { "address": "1435 S MOLE ST", "year": 2012.0, "permitdescription": "ADDITION PERMIT" }, "geometry": { "type": "Point", "coordinates": [ -75.170564814701521, 39.932520697677127 ] } },
{ "type": "Feature", "properties": { "address": "1508-46 S 16TH ST", "year": 2014.0, "permitdescription": "ADDITION PERMIT" }, "geometry": { "type": "Point", "coordinates": [ -75.171479423288375, 39.931656064779474 ] } },
{ "type": "Feature", "properties": { "address": "1519 S MOLE ST", "year": 2010.0, "permitdescription": "ADDITION PERMIT" }, "geometry": { "type": "Point", "coordinates": [ -75.170763000420891, 39.931592662596948 ] } },
{ "type": "Feature", "properties": { "address": "1414 DICKINSON ST", "year": 2014.0, "permitdescription": "ADDITION PERMIT" }, "geometry": { "type": "Point", "coordinates": [ -75.168772217587218, 39.931619315744193 ] } },
{ "type": "Feature", "properties": { "address": "1324 DICKINSON ST", "year": 2011.0, "permitdescription": "ADDITION PERMIT" }, "geometry": { "type": "Point", "coordinates": [ -75.167284840625911, 39.931451670087014 ] } },
{ "type": "Feature", "properties": { "address": "1404 S 15TH ST", "year": 2014.0, "permitdescription": "ADDITION PERMIT" }, "geometry": { "type": "Point", "coordinates": [ -75.169767876140725, 39.932996553694558 ] } },
{ "type": "Feature", "properties": { "address": "1217 GERRITT ST", "year": 2014.0, "permitdescription": "ADDITION PERMIT" }, "geometry": { "type": "Point", "coordinates": [ -75.165000086568796, 39.932219395777992 ] } },
{ "type": "Feature", "properties": { "address": "1218 GERRITT ST", "year": 2012.0, "permitdescription": "ADDITION PERMIT" }, "geometry": { "type": "Point", "coordinates": [ -75.165024079773204, 39.931999465860741 ] } },
{ "type": "Feature", "properties": { "address": "1234 REED ST", "year": 2009.0, "permitdescription": "ADDITION PERMIT" }, "geometry": { "type": "Point", "coordinates": [ -75.1652889892856, 39.932428381726879 ] } },
{ "type": "Feature", "properties": { "address": "1422 S 10TH ST", "year": 2015.0, "permitdescription": "ADDITION PERMIT" }, "geometry": { "type": "Point", "coordinates": [ -75.161328867607111, 39.931243671572261 ] } },
{ "type": "Feature", "properties": { "address": "1211 DICKINSON ST", "year": 2015.0, "permitdescription": "ADDITION PERMIT" }, "geometry": { "type": "Point", "coordinates": [ -75.165027735064982, 39.931470581984932 ] } },
{ "type": "Feature", "properties": { "address": "926-28 MOUNTAIN ST", "year": 2015.0, "permitdescription": "ADDITION PERMIT" }, "geometry": { "type": "Point", "coordinates": [ -75.161070396491183, 39.928578360205258 ] } },
{ "type": "Feature", "properties": { "address": "836 GREENWICH ST", "year": 2014.0, "permitdescription": "ADDITION PERMIT" }, "geometry": { "type": "Point", "coordinates": [ -75.15923802210871, 39.929986687568686 ] } },
{ "type": "Feature", "properties": { "address": "832 TASKER ST", "year": 2009.0, "permitdescription": "ADDITION PERMIT" }, "geometry": { "type": "Point", "coordinates": [ -75.159447793777375, 39.929176633912228 ] } },
{ "type": "Feature", "properties": { "address": "1424 S 9TH ST", "year": 2010.0, "permitdescription": "ADDITION PERMIT" }, "geometry": { "type": "Point", "coordinates": [ -75.159784241252311, 39.931202000988122 ] } },
{ "type": "Feature", "properties": { "address": "631 EARP ST", "year": 2012.0, "permitdescription": "ADDITION PERMIT" }, "geometry": { "type": "Point", "coordinates": [ -75.155544034023578, 39.931872498338819 ] } },
{ "type": "Feature", "properties": { "address": "1532 S BEULAH ST", "year": 2012.0, "permitdescription": "ADDITION PERMIT" }, "geometry": { "type": "Point", "coordinates": [ -75.157447257453839, 39.929501968500254 ] } },
{ "type": "Feature", "properties": { "address": "1404 E MOYAMENSING AVE", "year": 2009.0, "permitdescription": "ADDITION PERMIT" }, "geometry": { "type": "Point", "coordinates": [ -75.150549078300429, 39.929668275497207 ] } },
{ "type": "Feature", "properties": { "address": "418 CROSS ST", "year": 2012.0, "permitdescription": "ADDITION PERMIT" }, "geometry": { "type": "Point", "coordinates": [ -75.152738584556744, 39.928742020616198 ] } },
{ "type": "Feature", "properties": { "address": "612 SEARS ST", "year": 2010.0, "permitdescription": "ADDITION PERMIT" }, "geometry": { "type": "Point", "coordinates": [ -75.155045329356469, 39.931962665792071 ] } },
{ "type": "Feature", "properties": { "address": "419 TITAN ST", "year": 2009.0, "permitdescription": "ADDITION PERMIT" }, "geometry": { "type": "Point", "coordinates": [ -75.151938388852571, 39.932607878588776 ] } },
{ "type": "Feature", "properties": { "address": "411 GREENWICH ST", "year": 2013.0, "permitdescription": "ADDITION PERMIT" }, "geometry": { "type": "Point", "coordinates": [ -75.152365711650646, 39.929284931837785 ] } },
{ "type": "Feature", "properties": { "address": "243 GREENWICH ST", "year": 2015.0, "permitdescription": "ADDITION PERMIT" }, "geometry": { "type": "Point", "coordinates": [ -75.149758832652921, 39.928889085471191 ] } },
{ "type": "Feature", "properties": { "address": "535 WHARTON ST", "year": 2011.0, "permitdescription": "ADDITION PERMIT" }, "geometry": { "type": "Point", "coordinates": [ -75.153948352893764, 39.932526052807283 ] } },
{ "type": "Feature", "properties": { "address": "443 CROSS ST", "year": 2012.0, "permitdescription": "ADDITION PERMIT" }, "geometry": { "type": "Point", "coordinates": [ -75.153246426338484, 39.929038772442347 ] } },
{ "type": "Feature", "properties": { "address": "1415 S 4TH ST", "year": 2012.0, "permitdescription": "ADDITION PERMIT" }, "geometry": { "type": "Point", "coordinates": [ -75.151516771318015, 39.930405285092931 ] } },
{ "type": "Feature", "properties": { "address": "1313 S FAIRHILL ST", "year": 2013.0, "permitdescription": "ADDITION PERMIT" }, "geometry": { "type": "Point", "coordinates": [ -75.153932129565405, 39.931795017661074 ] } },
{ "type": "Feature", "properties": { "address": "503 GREENWICH ST", "year": 2015.0, "permitdescription": "ADDITION PERMIT" }, "geometry": { "type": "Point", "coordinates": [ -75.153920115763185, 39.929504667258328 ] } },
{ "type": "Feature", "properties": { "address": "407 CROSS ST", "year": 2012.0, "permitdescription": "ADDITION PERMIT" }, "geometry": { "type": "Point", "coordinates": [ -75.152355441560871, 39.928922126323933 ] } },
{ "type": "Feature", "properties": { "address": "309 TITAN ST", "year": 2009.0, "permitdescription": "ADDITION PERMIT" }, "geometry": { "type": "Point", "coordinates": [ -75.150047038329916, 39.93240601563425 ] } },
{ "type": "Feature", "properties": { "address": "1437 S 4TH ST", "year": 2008.0, "permitdescription": "ADDITION PERMIT" }, "geometry": { "type": "Point", "coordinates": [ -75.151581011210993, 39.929755271271318 ] } },
{ "type": "Feature", "properties": { "address": "214 GERRITT ST", "year": 2012.0, "permitdescription": "ADDITION PERMIT" }, "geometry": { "type": "Point", "coordinates": [ -75.149013620086578, 39.929904978317509 ] } },
{ "type": "Feature", "properties": { "address": "1318 S AMERICAN ST", "year": 2008.0, "permitdescription": "ADDITION PERMIT" }, "geometry": { "type": "Point", "coordinates": [ -75.148946154367195, 39.931199988334441 ] } },
{ "type": "Feature", "properties": { "address": "215 EARP ST", "year": 2011.0, "permitdescription": "ADDITION PERMIT" }, "geometry": { "type": "Point", "coordinates": [ -75.148531101852882, 39.93107244463345 ] } },
{ "type": "Feature", "properties": { "address": "133 MANTON ST", "year": 2010.0, "permitdescription": "ADDITION PERMIT" }, "geometry": { "type": "Point", "coordinates": [ -75.147112249110933, 39.932370766916357 ] } },
{ "type": "Feature", "properties": { "address": "1120-24 S FRONT ST", "year": 2011.0, "permitdescription": "ADDITION PERMIT" }, "geometry": { "type": "Point", "coordinates": [ -75.146375050982172, 39.93187632049645 ] } },
{ "type": "Feature", "properties": { "address": "111 WHARTON ST", "year": 2011.0, "permitdescription": "ADDITION PERMIT" }, "geometry": { "type": "Point", "coordinates": [ -75.146724923673631, 39.931555919052393 ] } },
{ "type": "Feature", "properties": { "address": "203 GERRITT ST", "year": 2012.0, "permitdescription": "ADDITION PERMIT" }, "geometry": { "type": "Point", "coordinates": [ -75.148711997208196, 39.930102884131408 ] } },
{ "type": "Feature", "properties": { "address": "210 GREENWICH ST", "year": 2009.0, "permitdescription": "ADDITION PERMIT" }, "geometry": { "type": "Point", "coordinates": [ -75.149011259348995, 39.928238859778759 ] } },
{ "type": "Feature", "properties": { "address": "1615 S 58TH ST", "year": 2010.0, "permitdescription": "ADDITION PERMIT" }, "geometry": { "type": "Point", "coordinates": [ -75.231706228400697, 39.938717719421824 ] } },
{ "type": "Feature", "properties": { "address": "1318 S 35TH ST", "year": 2011.0, "permitdescription": "ADDITION PERMIT" }, "geometry": { "type": "Point", "coordinates": [ -75.200519442805501, 39.938151160865296 ] } },
{ "type": "Feature", "properties": { "address": "1275 S NEWKIRK ST", "year": 2008.0, "permitdescription": "ADDITION PERMIT" }, "geometry": { "type": "Point", "coordinates": [ -75.190833063071224, 39.937402888894653 ] } },
{ "type": "Feature", "properties": { "address": "2222 REED ST", "year": 2014.0, "permitdescription": "ADDITION PERMIT" }, "geometry": { "type": "Point", "coordinates": [ -75.181695226113618, 39.934553732707499 ] } },
{ "type": "Feature", "properties": { "address": "2129 LATONA ST", "year": 2012.0, "permitdescription": "ADDITION PERMIT" }, "geometry": { "type": "Point", "coordinates": [ -75.179687057153188, 39.936562508512708 ] } },
{ "type": "Feature", "properties": { "address": "2028 WHARTON ST", "year": 2015.0, "permitdescription": "ADDITION PERMIT" }, "geometry": { "type": "Point", "coordinates": [ -75.178252282152755, 39.935364789129814 ] } },
{ "type": "Feature", "properties": { "address": "2222 OAKFORD ST", "year": 2015.0, "permitdescription": "ADDITION PERMIT" }, "geometry": { "type": "Point", "coordinates": [ -75.181139417058461, 39.936890567840258 ] } },
{ "type": "Feature", "properties": { "address": "2210 MANTON ST", "year": 2014.0, "permitdescription": "ADDITION PERMIT" }, "geometry": { "type": "Point", "coordinates": [ -75.180721226861976, 39.937311691696287 ] } },
{ "type": "Feature", "properties": { "address": "2126 FEDERAL ST", "year": 2015.0, "permitdescription": "ADDITION PERMIT" }, "geometry": { "type": "Point", "coordinates": [ -75.179523314495142, 39.937591271453215 ] } },
{ "type": "Feature", "properties": { "address": "1338 S 22ND ST", "year": 2015.0, "permitdescription": "ADDITION PERMIT" }, "geometry": { "type": "Point", "coordinates": [ -75.181079472907555, 39.934816566459048 ] } },
{ "type": "Feature", "properties": { "address": "2131 LATONA ST", "year": 2014.0, "permitdescription": "ADDITION PERMIT" }, "geometry": { "type": "Point", "coordinates": [ -75.179737026491765, 39.936569341484784 ] } },
{ "type": "Feature", "properties": { "address": "1724 TITAN ST", "year": 2008.0, "permitdescription": "ADDITION PERMIT" }, "geometry": { "type": "Point", "coordinates": [ -75.173315538870952, 39.935266409702855 ] } },
{ "type": "Feature", "properties": { "address": "1242 S 17TH ST", "year": 2013.0, "permitdescription": "ADDITION PERMIT" }, "geometry": { "type": "Point", "coordinates": [ -75.172503026518413, 39.93532780214413 ] } },
{ "type": "Feature", "properties": { "address": "1907 LATONA ST", "year": 2010.0, "permitdescription": "ADDITION PERMIT" }, "geometry": { "type": "Point", "coordinates": [ -75.175789038646329, 39.936346754356684 ] } },
{ "type": "Feature", "properties": { "address": "1930 LATONA ST", "year": 2010.0, "permitdescription": "ADDITION PERMIT" }, "geometry": { "type": "Point", "coordinates": [ -75.176523307682103, 39.93609507148053 ] } },
{ "type": "Feature", "properties": { "address": "1408 S 19TH ST", "year": 2009.0, "permitdescription": "ADDITION PERMIT" }, "geometry": { "type": "Point", "coordinates": [ -75.176060542885693, 39.933693228100786 ] } },
{ "type": "Feature", "properties": { "address": "1925 TITAN ST", "year": 2014.0, "permitdescription": "ADDITION PERMIT" }, "geometry": { "type": "Point", "coordinates": [ -75.176322930366311, 39.935883737999383 ] } },
{ "type": "Feature", "properties": { "address": "1714 FEDERAL ST", "year": 2008.0, "permitdescription": "ADDITION PERMIT" }, "geometry": { "type": "Point", "coordinates": [ -75.172697719705255, 39.936429800126298 ] } },
{ "type": "Feature", "properties": { "address": "1140 S 18TH ST", "year": 2011.0, "permitdescription": "ADDITION PERMIT" }, "geometry": { "type": "Point", "coordinates": [ -75.173653675470803, 39.937379709563729 ] } },
{ "type": "Feature", "properties": { "address": "1309 DORRANCE ST", "year": 2015.0, "permitdescription": "ADDITION PERMIT" }, "geometry": { "type": "Point", "coordinates": [ -75.174986737024938, 39.934681189159278 ] } },
{ "type": "Feature", "properties": { "address": "1809 MANTON ST", "year": 2012.0, "permitdescription": "ADDITION PERMIT" }, "geometry": { "type": "Point", "coordinates": [ -75.174013757450936, 39.936452433939166 ] } },
{ "type": "Feature", "properties": { "address": "1705 WHARTON ST", "year": 2015.0, "permitdescription": "ADDITION PERMIT" }, "geometry": { "type": "Point", "coordinates": [ -75.172807195355276, 39.934991389477169 ] } },
{ "type": "Feature", "properties": { "address": "1930 TITAN ST", "year": 2014.0, "permitdescription": "ADDITION PERMIT" }, "geometry": { "type": "Point", "coordinates": [ -75.176530759775574, 39.935652650046336 ] } },
{ "type": "Feature", "properties": { "address": "1250 S 20TH ST", "year": 2015.0, "permitdescription": "ADDITION PERMIT" }, "geometry": { "type": "Point", "coordinates": [ -75.177262025986408, 39.935643338205772 ] } },
{ "type": "Feature", "properties": { "address": "1138 S CLEVELAND ST", "year": 2014.0, "permitdescription": "ADDITION PERMIT" }, "geometry": { "type": "Point", "coordinates": [ -75.174133505020009, 39.93748872058913 ] } },
{ "type": "Feature", "properties": { "address": "1414 S 17TH ST", "year": 2012.0, "permitdescription": "ADDITION PERMIT" }, "geometry": { "type": "Point", "coordinates": [ -75.172951096386612, 39.933184614782505 ] } },
{ "type": "Feature", "properties": { "address": "1811 GERRITT ST", "year": 2015.0, "permitdescription": "ADDITION PERMIT" }, "geometry": { "type": "Point", "coordinates": [ -75.174667106434057, 39.933503202846424 ] } },
{ "type": "Feature", "properties": { "address": "2026 MANTON ST", "year": 2014.0, "permitdescription": "ADDITION PERMIT" }, "geometry": { "type": "Point", "coordinates": [ -75.178001243260539, 39.936918551952964 ] } },
{ "type": "Feature", "properties": { "address": "1915 GERRITT ST", "year": 2015.0, "permitdescription": "ADDITION PERMIT" }, "geometry": { "type": "Point", "coordinates": [ -75.176367194064696, 39.933714252437461 ] } },
{ "type": "Feature", "properties": { "address": "1920 LATONA ST", "year": 2013.0, "permitdescription": "ADDITION PERMIT" }, "geometry": { "type": "Point", "coordinates": [ -75.176246161016707, 39.936059230727913 ] } },
{ "type": "Feature", "properties": { "address": "2026 MANTON ST", "year": 2014.0, "permitdescription": "ADDITION PERMIT" }, "geometry": { "type": "Point", "coordinates": [ -75.178001243260539, 39.936918551952964 ] } },
{ "type": "Feature", "properties": { "address": "1708 LATONA ST", "year": 2015.0, "permitdescription": "ADDITION PERMIT" }, "geometry": { "type": "Point", "coordinates": [ -75.172795662661827, 39.935580954483299 ] } },
{ "type": "Feature", "properties": { "address": "2029 MANTON ST", "year": 2015.0, "permitdescription": "ADDITION PERMIT" }, "geometry": { "type": "Point", "coordinates": [ -75.177947499102828, 39.937156441808675 ] } },
{ "type": "Feature", "properties": { "address": "1730 LATONA ST", "year": 2012.0, "permitdescription": "ADDITION PERMIT" }, "geometry": { "type": "Point", "coordinates": [ -75.173396313263638, 39.935658178622297 ] } },
{ "type": "Feature", "properties": { "address": "1307 DORRANCE ST", "year": 2014.0, "permitdescription": "ADDITION PERMIT" }, "geometry": { "type": "Point", "coordinates": [ -75.174978012875229, 39.934719744307905 ] } },
{ "type": "Feature", "properties": { "address": "1325 S 17TH ST", "year": 2010.0, "permitdescription": "ADDITION PERMIT" }, "geometry": { "type": "Point", "coordinates": [ -75.17237207931062, 39.933962896622013 ] } },
{ "type": "Feature", "properties": { "address": "1639 TITAN ST", "year": 2012.0, "permitdescription": "ADDITION PERMIT" }, "geometry": { "type": "Point", "coordinates": [ -75.171848152608774, 39.935291983148666 ] } },
{ "type": "Feature", "properties": { "address": "1519 LATONA ST", "year": 2014.0, "permitdescription": "ADDITION PERMIT" }, "geometry": { "type": "Point", "coordinates": [ -75.169815573913823, 39.935372447680997 ] } },
{ "type": "Feature", "properties": { "address": "1635 TITAN ST", "year": 2015.0, "permitdescription": "ADDITION PERMIT" }, "geometry": { "type": "Point", "coordinates": [ -75.171736935315465, 39.935278541398723 ] } },
{ "type": "Feature", "properties": { "address": "1208 S 16TH ST", "year": 2009.0, "permitdescription": "ADDITION PERMIT" }, "geometry": { "type": "Point", "coordinates": [ -75.170713597590677, 39.93600014910237 ] } },
{ "type": "Feature", "properties": { "address": "1400 ELLSWORTH ST", "year": 2010.0, "permitdescription": "ADDITION PERMIT" }, "geometry": { "type": "Point", "coordinates": [ -75.167782835357599, 39.93666971997569 ] } },
{ "type": "Feature", "properties": { "address": "1710 ELLSWORTH ST", "year": 2013.0, "permitdescription": "ADDITION PERMIT" }, "geometry": { "type": "Point", "coordinates": [ -75.172236835961371, 39.937331737829219 ] } },
{ "type": "Feature", "properties": { "address": "1235 S BROAD ST", "year": 2011.0, "permitdescription": "ADDITION PERMIT" }, "geometry": { "type": "Point", "coordinates": [ -75.167137737979459, 39.934299324700916 ] } },
{ "type": "Feature", "properties": { "address": "1150 S SYDENHAM ST", "year": 2015.0, "permitdescription": "ADDITION PERMIT" }, "geometry": { "type": "Point", "coordinates": [ -75.169778925603794, 39.936485205785729 ] } },
{ "type": "Feature", "properties": { "address": "1148 S 15TH ST", "year": 2012.0, "permitdescription": "ADDITION PERMIT" }, "geometry": { "type": "Point", "coordinates": [ -75.169037245609374, 39.936620087433994 ] } },
{ "type": "Feature", "properties": { "address": "1505 LATONA ST", "year": 2009.0, "permitdescription": "ADDITION PERMIT" }, "geometry": { "type": "Point", "coordinates": [ -75.169474634253845, 39.935319815475523 ] } },
{ "type": "Feature", "properties": { "address": "1608 MANTON ST", "year": 2015.0, "permitdescription": "ADDITION PERMIT" }, "geometry": { "type": "Point", "coordinates": [ -75.17107941871636, 39.935731415219088 ] } },
{ "type": "Feature", "properties": { "address": "1214 S CARLISLE ST", "year": 2008.0, "permitdescription": "ADDITION PERMIT" }, "geometry": { "type": "Point", "coordinates": [ -75.168462529619219, 39.935489656456703 ] } },
{ "type": "Feature", "properties": { "address": "1218 S BROAD ST", "year": 2008.0, "permitdescription": "ADDITION PERMIT" }, "geometry": { "type": "Point", "coordinates": [ -75.167801466800412, 39.935064701402261 ] } },
{ "type": "Feature", "properties": { "address": "1023 FEDERAL ST", "year": 2008.0, "permitdescription": "ADDITION PERMIT" }, "geometry": { "type": "Point", "coordinates": [ -75.161126263219074, 39.934834186619916 ] } },
{ "type": "Feature", "properties": { "address": "1217 S JUNIPER ST", "year": 2015.0, "permitdescription": "ADDITION PERMIT" }, "geometry": { "type": "Point", "coordinates": [ -75.166165866390898, 39.934880422699521 ] } },
{ "type": "Feature", "properties": { "address": "1205 FEDERAL ST", "year": 2008.0, "permitdescription": "ADDITION PERMIT" }, "geometry": { "type": "Point", "coordinates": [ -75.163735055877893, 39.93527009006938 ] } },
{ "type": "Feature", "properties": { "address": "1326 ELLSWORTH ST", "year": 2010.0, "permitdescription": "ADDITION PERMIT" }, "geometry": { "type": "Point", "coordinates": [ -75.165778595275512, 39.936340926321407 ] } },
{ "type": "Feature", "properties": { "address": "1140 S 12TH ST", "year": 2014.0, "permitdescription": "ADDITION PERMIT" }, "geometry": { "type": "Point", "coordinates": [ -75.163658501072476, 39.935896302549587 ] } },
{ "type": "Feature", "properties": { "address": "1175 S 12TH ST", "year": 2011.0, "permitdescription": "ADDITION PERMIT" }, "geometry": { "type": "Point", "coordinates": [ -75.163277906136699, 39.935300017235349 ] } },
{ "type": "Feature", "properties": { "address": "1123 ANNIN ST", "year": 2014.0, "permitdescription": "ADDITION PERMIT" }, "geometry": { "type": "Point", "coordinates": [ -75.162724001296866, 39.935625042718492 ] } },
{ "type": "Feature", "properties": { "address": "1152 S 12TH ST", "year": 2015.0, "permitdescription": "ADDITION PERMIT" }, "geometry": { "type": "Point", "coordinates": [ -75.163639281601888, 39.935571689332981 ] } },
{ "type": "Feature", "properties": { "address": "1329 ANNIN ST", "year": 2010.0, "permitdescription": "ADDITION PERMIT" }, "geometry": { "type": "Point", "coordinates": [ -75.165737419996191, 39.936253066522816 ] } },
{ "type": "Feature", "properties": { "address": "1213 FEDERAL ST", "year": 2009.0, "permitdescription": "ADDITION PERMIT" }, "geometry": { "type": "Point", "coordinates": [ -75.163945103720948, 39.935305915350028 ] } },
{ "type": "Feature", "properties": { "address": "1222 ELLSWORTH ST", "year": 2008.0, "permitdescription": "ADDITION PERMIT" }, "geometry": { "type": "Point", "coordinates": [ -75.164081061430878, 39.936029860741932 ] } },
{ "type": "Feature", "properties": { "address": "704 ALTER ST", "year": 2014.0, "permitdescription": "ADDITION PERMIT" }, "geometry": { "type": "Point", "coordinates": [ -75.155914695691607, 39.934981295351498 ] } },
{ "type": "Feature", "properties": { "address": "1217 S 7TH ST", "year": 2009.0, "permitdescription": "ADDITION PERMIT" }, "geometry": { "type": "Point", "coordinates": [ -75.155664559687054, 39.933409803776001 ] } },
{ "type": "Feature", "properties": { "address": "727 ANNIN ST", "year": 2010.0, "permitdescription": "ADDITION PERMIT" }, "geometry": { "type": "Point", "coordinates": [ -75.156543389352535, 39.934528379628894 ] } },
{ "type": "Feature", "properties": { "address": "814 WHARTON ST", "year": 2015.0, "permitdescription": "ADDITION PERMIT" }, "geometry": { "type": "Point", "coordinates": [ -75.158107396369104, 39.932756900732464 ] } },
{ "type": "Feature", "properties": { "address": "716 CARPENTER ST", "year": 2010.0, "permitdescription": "ADDITION PERMIT" }, "geometry": { "type": "Point", "coordinates": [ -75.155738276500188, 39.936802615364236 ] } },
{ "type": "Feature", "properties": { "address": "816 WHARTON ST", "year": 2011.0, "permitdescription": "ADDITION PERMIT" }, "geometry": { "type": "Point", "coordinates": [ -75.158160217074155, 39.932764895746232 ] } },
{ "type": "Feature", "properties": { "address": "534 MANTON ST", "year": 2013.0, "permitdescription": "ADDITION PERMIT" }, "geometry": { "type": "Point", "coordinates": [ -75.153764979972195, 39.933015378148447 ] } },
{ "type": "Feature", "properties": { "address": "442 FEDERAL ST", "year": 2010.0, "permitdescription": "ADDITION PERMIT" }, "geometry": { "type": "Point", "coordinates": [ -75.15229626116772, 39.933237277696236 ] } },
{ "type": "Feature", "properties": { "address": "1001-07 S 4TH ST", "year": 2012.0, "permitdescription": "ADDITION PERMIT" }, "geometry": { "type": "Point", "coordinates": [ -75.150168148587156, 39.935279890014527 ] } },
{ "type": "Feature", "properties": { "address": "608 CARPENTER ST", "year": 2010.0, "permitdescription": "ADDITION PERMIT" }, "geometry": { "type": "Point", "coordinates": [ -75.15397680018954, 39.936303187047223 ] } },
{ "type": "Feature", "properties": { "address": "1033 S RANDOLPH ST", "year": 2015.0, "permitdescription": "ADDITION PERMIT" }, "geometry": { "type": "Point", "coordinates": [ -75.152855389151384, 39.93534950754259 ] } },
{ "type": "Feature", "properties": { "address": "1210 S 5TH ST", "year": 2009.0, "permitdescription": "ADDITION PERMIT" }, "geometry": { "type": "Point", "coordinates": [ -75.152904813665785, 39.933131967529377 ] } },
{ "type": "Feature", "properties": { "address": "637 KIMBALL ST", "year": 2015.0, "permitdescription": "ADDITION PERMIT" }, "geometry": { "type": "Point", "coordinates": [ -75.154815404445998, 39.936331273391815 ] } },
{ "type": "Feature", "properties": { "address": "209 MONTROSE ST", "year": 2013.0, "permitdescription": "ADDITION PERMIT" }, "geometry": { "type": "Point", "coordinates": [ -75.147705418260742, 39.93566442510317 ] } },
{ "type": "Feature", "properties": { "address": "832 S 2ND ST", "year": 2009.0, "permitdescription": "ADDITION PERMIT" }, "geometry": { "type": "Point", "coordinates": [ -75.146850572948196, 39.936654746686891 ] } },
{ "type": "Feature", "properties": { "address": "201 CHRISTIAN ST", "year": 2011.0, "permitdescription": "ADDITION PERMIT" }, "geometry": { "type": "Point", "coordinates": [ -75.147031636483518, 39.936201483150882 ] } },
{ "type": "Feature", "properties": { "address": "5401 WARRINGTON AVE", "year": 2015.0, "permitdescription": "ADDITION PERMIT" }, "geometry": { "type": "Point", "coordinates": [ -75.226619803762119, 39.941756009400656 ] } },
{ "type": "Feature", "properties": { "address": "5109 KINGSESSING AVE", "year": 2013.0, "permitdescription": "ADDITION PERMIT" }, "geometry": { "type": "Point", "coordinates": [ -75.218353243406582, 39.941280471922084 ] } },
{ "type": "Feature", "properties": { "address": "5115 CHESTER AVE", "year": 2013.0, "permitdescription": "ADDITION PERMIT" }, "geometry": { "type": "Point", "coordinates": [ -75.219742868151727, 39.942265805760364 ] } },
{ "type": "Feature", "properties": { "address": "1234-36 S 35TH ST", "year": 2013.0, "permitdescription": "ADDITION PERMIT" }, "geometry": { "type": "Point", "coordinates": [ -75.200200859223514, 39.939052659312125 ] } },
{ "type": "Feature", "properties": { "address": "1210 S HARMONY ST", "year": 2010.0, "permitdescription": "ADDITION PERMIT" }, "geometry": { "type": "Point", "coordinates": [ -75.200528149952603, 39.939630507615426 ] } },
{ "type": "Feature", "properties": { "address": "2717 OAKFORD ST", "year": 2010.0, "permitdescription": "ADDITION PERMIT" }, "geometry": { "type": "Point", "coordinates": [ -75.189319942498372, 39.938217539124011 ] } },
{ "type": "Feature", "properties": { "address": "2113 CARPENTER ST", "year": 2013.0, "permitdescription": "ADDITION PERMIT" }, "geometry": { "type": "Point", "coordinates": [ -75.178586473049222, 39.940731676504313 ] } },
{ "type": "Feature", "properties": { "address": "2213 KIMBALL ST", "year": 2008.0, "permitdescription": "ADDITION PERMIT" }, "geometry": { "type": "Point", "coordinates": [ -75.180229855088058, 39.940475708541037 ] } },
{ "type": "Feature", "properties": { "address": "2121 MONTROSE ST", "year": 2014.0, "permitdescription": "ADDITION PERMIT" }, "geometry": { "type": "Point", "coordinates": [ -75.178460761756355, 39.941163138576194 ] } },
{ "type": "Feature", "properties": { "address": "2127 CHRISTIAN ST", "year": 2008.0, "permitdescription": "ADDITION PERMIT" }, "geometry": { "type": "Point", "coordinates": [ -75.178589073088503, 39.941756261754222 ] } },
{ "type": "Feature", "properties": { "address": "2306 CHRISTIAN ST", "year": 2014.0, "permitdescription": "ADDITION PERMIT" }, "geometry": { "type": "Point", "coordinates": [ -75.181339846652946, 39.941726644233803 ] } },
{ "type": "Feature", "properties": { "address": "2224 ELLSWORTH ST", "year": 2008.0, "permitdescription": "ADDITION PERMIT" }, "geometry": { "type": "Point", "coordinates": [ -75.180895135623786, 39.938400530960834 ] } },
{ "type": "Feature", "properties": { "address": "2143 ELLSWORTH ST", "year": 2015.0, "permitdescription": "ADDITION PERMIT" }, "geometry": { "type": "Point", "coordinates": [ -75.179711634988635, 39.938623069498412 ] } },
{ "type": "Feature", "properties": { "address": "2232 ELLSWORTH ST", "year": 2008.0, "permitdescription": "ADDITION PERMIT" }, "geometry": { "type": "Point", "coordinates": [ -75.181121056821738, 39.938428303481146 ] } },
{ "type": "Feature", "properties": { "address": "2320 CHRISTIAN ST", "year": 2009.0, "permitdescription": "ADDITION PERMIT" }, "geometry": { "type": "Point", "coordinates": [ -75.181731601861117, 39.941776116689041 ] } },
{ "type": "Feature", "properties": { "address": "1214 S BONSALL ST", "year": 2015.0, "permitdescription": "ADDITION PERMIT" }, "geometry": { "type": "Point", "coordinates": [ -75.182639510322119, 39.937790272200694 ] } },
{ "type": "Feature", "properties": { "address": "2337 FEDERAL ST", "year": 2008.0, "permitdescription": "ADDITION PERMIT" }, "geometry": { "type": "Point", "coordinates": [ -75.183088784003374, 39.938440723363236 ] } },
{ "type": "Feature", "properties": { "address": "2331 FEDERAL ST", "year": 2010.0, "permitdescription": "ADDITION PERMIT" }, "geometry": { "type": "Point", "coordinates": [ -75.182919261876364, 39.938420164734133 ] } },
{ "type": "Feature", "properties": { "address": "1210 S BONSALL ST", "year": 2015.0, "permitdescription": "ADDITION PERMIT" }, "geometry": { "type": "Point", "coordinates": [ -75.182622999961097, 39.937871945461772 ] } },
{ "type": "Feature", "properties": { "address": "2219 CARPENTER ST", "year": 2013.0, "permitdescription": "ADDITION PERMIT" }, "geometry": { "type": "Point", "coordinates": [ -75.180173373542175, 39.940934625499793 ] } },
{ "type": "Feature", "properties": { "address": "2242 KIMBALL ST", "year": 2015.0, "permitdescription": "ADDITION PERMIT" }, "geometry": { "type": "Point", "coordinates": [ -75.181005451572261, 39.940343037422636 ] } },
{ "type": "Feature", "properties": { "address": "2226 ELLSWORTH ST", "year": 2009.0, "permitdescription": "ADDITION PERMIT" }, "geometry": { "type": "Point", "coordinates": [ -75.180950971859147, 39.938407169629521 ] } },
{ "type": "Feature", "properties": { "address": "2215 CARPENTER ST", "year": 2015.0, "permitdescription": "ADDITION PERMIT" }, "geometry": { "type": "Point", "coordinates": [ -75.180067431629027, 39.940921318233393 ] } },
{ "type": "Feature", "properties": { "address": "1008 S 22ND ST", "year": 2015.0, "permitdescription": "ADDITION PERMIT" }, "geometry": { "type": "Point", "coordinates": [ -75.179838305871655, 39.940461764673735 ] } },
{ "type": "Feature", "properties": { "address": "1928 MONTROSE ST", "year": 2011.0, "permitdescription": "ADDITION PERMIT" }, "geometry": { "type": "Point", "coordinates": [ -75.175491318726216, 39.940531236431212 ] } },
{ "type": "Feature", "properties": { "address": "1128 S 19TH ST", "year": 2015.0, "permitdescription": "ADDITION PERMIT" }, "geometry": { "type": "Point", "coordinates": [ -75.175202631198502, 39.937790439906202 ] } },
{ "type": "Feature", "properties": { "address": "2044 CARPENTER ST", "year": 2010.0, "permitdescription": "ADDITION PERMIT" }, "geometry": { "type": "Point", "coordinates": [ -75.177616754897301, 39.940296527630395 ] } },
{ "type": "Feature", "properties": { "address": "1916 WEBSTER ST", "year": 2009.0, "permitdescription": "ADDITION PERMIT" }, "geometry": { "type": "Point", "coordinates": [ -75.174839183167208, 39.941425103573543 ] } },
{ "type": "Feature", "properties": { "address": "1011 S CLEVELAND ST", "year": 2008.0, "permitdescription": "ADDITION PERMIT" }, "geometry": { "type": "Point", "coordinates": [ -75.173411459364104, 39.939634468362989 ] } },
{ "type": "Feature", "properties": { "address": "2031 CARPENTER ST", "year": 2014.0, "permitdescription": "ADDITION PERMIT" }, "geometry": { "type": "Point", "coordinates": [ -75.177229465517982, 39.940565340668549 ] } },
{ "type": "Feature", "properties": { "address": "1822 CATHARINE ST", "year": 2011.0, "permitdescription": "ADDITION PERMIT" }, "geometry": { "type": "Point", "coordinates": [ -75.173328552972649, 39.941547468374083 ] } },
{ "type": "Feature", "properties": { "address": "2017 CARPENTER ST", "year": 2012.0, "permitdescription": "ADDITION PERMIT" }, "geometry": { "type": "Point", "coordinates": [ -75.17683834962159, 39.940515728813594 ] } },
{ "type": "Feature", "properties": { "address": "1002 S 19TH ST", "year": 2011.0, "permitdescription": "ADDITION PERMIT" }, "geometry": { "type": "Point", "coordinates": [ -75.174723649164108, 39.939949238500986 ] } },
{ "type": "Feature", "properties": { "address": "1033 S CHADWICK ST", "year": 2010.0, "permitdescription": "ADDITION PERMIT" }, "geometry": { "type": "Point", "coordinates": [ -75.170818552364352, 39.938769179364712 ] } },
{ "type": "Feature", "properties": { "address": "1713 WEBSTER ST", "year": 2008.0, "permitdescription": "ADDITION PERMIT" }, "geometry": { "type": "Point", "coordinates": [ -75.171431506183112, 39.941169565471171 ] } },
{ "type": "Feature", "properties": { "address": "1422 MONTROSE ST", "year": 2010.0, "permitdescription": "ADDITION PERMIT" }, "geometry": { "type": "Point", "coordinates": [ -75.167402504108708, 39.939537587797147 ] } },
{ "type": "Feature", "properties": { "address": "770 S 15TH ST", "year": 2014.0, "permitdescription": "ADDITION PERMIT" }, "geometry": { "type": "Point", "coordinates": [ -75.167991716089674, 39.941262119242779 ] } },
{ "type": "Feature", "properties": { "address": "1430 CATHARINE ST", "year": 2011.0, "permitdescription": "ADDITION PERMIT" }, "geometry": { "type": "Point", "coordinates": [ -75.167415180953626, 39.940749690722576 ] } },
{ "type": "Feature", "properties": { "address": "1607-19 CATHARINE ST", "year": 2015.0, "permitdescription": "ADDITION PERMIT" }, "geometry": { "type": "Point", "coordinates": [ -75.169820659355238, 39.941515710400502 ] } },
{ "type": "Feature", "properties": { "address": "1608 MONTROSE ST", "year": 2010.0, "permitdescription": "ADDITION PERMIT" }, "geometry": { "type": "Point", "coordinates": [ -75.170185103856497, 39.939893348473326 ] } },
{ "type": "Feature", "properties": { "address": "1522 MONTROSE ST", "year": 2008.0, "permitdescription": "ADDITION PERMIT" }, "geometry": { "type": "Point", "coordinates": [ -75.168979097860827, 39.939722814036699 ] } },
{ "type": "Feature", "properties": { "address": "1016 S CHADWICK ST", "year": 2008.0, "permitdescription": "ADDITION PERMIT" }, "geometry": { "type": "Point", "coordinates": [ -75.171039814032326, 39.939156034922163 ] } },
{ "type": "Feature", "properties": { "address": "754 S CHADWICK ST", "year": 2008.0, "permitdescription": "ADDITION PERMIT" }, "geometry": { "type": "Point", "coordinates": [ -75.170369509082718, 39.941801569261045 ] } },
{ "type": "Feature", "properties": { "address": "1710 CATHARINE ST", "year": 2015.0, "permitdescription": "ADDITION PERMIT" }, "geometry": { "type": "Point", "coordinates": [ -75.171408903828933, 39.94130910940504 ] } },
{ "type": "Feature", "properties": { "address": "1536 CATHARINE ST", "year": 2015.0, "permitdescription": "ADDITION PERMIT" }, "geometry": { "type": "Point", "coordinates": [ -75.169293302727652, 39.941065260083917 ] } },
{ "type": "Feature", "properties": { "address": "770 S 15TH ST", "year": 2014.0, "permitdescription": "ADDITION PERMIT" }, "geometry": { "type": "Point", "coordinates": [ -75.167991716089674, 39.941262119242779 ] } },
{ "type": "Feature", "properties": { "address": "1430 CHRISTIAN ST", "year": 2015.0, "permitdescription": "ADDITION PERMIT" }, "geometry": { "type": "Point", "coordinates": [ -75.167513095543882, 39.939979449808291 ] } },
{ "type": "Feature", "properties": { "address": "1012 S CHADWICK ST", "year": 2008.0, "permitdescription": "ADDITION PERMIT" }, "geometry": { "type": "Point", "coordinates": [ -75.171021567462304, 39.93924321998086 ] } },
{ "type": "Feature", "properties": { "address": "754 S HICKS ST", "year": 2012.0, "permitdescription": "ADDITION PERMIT" }, "geometry": { "type": "Point", "coordinates": [ -75.168414966297647, 39.941693421056478 ] } },
{ "type": "Feature", "properties": { "address": "1512 MONTROSE ST", "year": 2011.0, "permitdescription": "ADDITION PERMIT" }, "geometry": { "type": "Point", "coordinates": [ -75.168730389113122, 39.939691851266858 ] } },
{ "type": "Feature", "properties": { "address": "1008 S COLORADO ST", "year": 2008.0, "permitdescription": "ADDITION PERMIT" }, "geometry": { "type": "Point", "coordinates": [ -75.17217584052824, 39.939482705482312 ] } },
{ "type": "Feature", "properties": { "address": "906 S 12TH ST", "year": 2012.0, "permitdescription": "ADDITION PERMIT" }, "geometry": { "type": "Point", "coordinates": [ -75.162822027254805, 39.939353708030772 ] } },
{ "type": "Feature", "properties": { "address": "1222 CATHARINE ST", "year": 2012.0, "permitdescription": "ADDITION PERMIT" }, "geometry": { "type": "Point", "coordinates": [ -75.163175551052902, 39.940281509250028 ] } },
{ "type": "Feature", "properties": { "address": "762 S MARVINE ST", "year": 2014.0, "permitdescription": "ADDITION PERMIT" }, "geometry": { "type": "Point", "coordinates": [ -75.161734098848896, 39.940648558060154 ] } },
{ "type": "Feature", "properties": { "address": "1213 WEBSTER ST", "year": 2012.0, "permitdescription": "ADDITION PERMIT" }, "geometry": { "type": "Point", "coordinates": [ -75.162969090147016, 39.94010888990919 ] } },
{ "type": "Feature", "properties": { "address": "933 S 11TH ST", "year": 2010.0, "permitdescription": "ADDITION PERMIT" }, "geometry": { "type": "Point", "coordinates": [ -75.160931989820384, 39.938412421682017 ] } },
{ "type": "Feature", "properties": { "address": "904 S 12TH ST", "year": 2012.0, "permitdescription": "ADDITION PERMIT" }, "geometry": { "type": "Point", "coordinates": [ -75.162814302657424, 39.939397860240618 ] } },
{ "type": "Feature", "properties": { "address": "729 S 12TH ST", "year": 2012.0, "permitdescription": "ADDITION PERMIT" }, "geometry": { "type": "Point", "coordinates": [ -75.161875679615093, 39.941509314880662 ] } },
{ "type": "Feature", "properties": { "address": "1002 S 11TH ST", "year": 2012.0, "permitdescription": "ADDITION PERMIT" }, "geometry": { "type": "Point", "coordinates": [ -75.161540734647801, 39.938311967072522 ] } },
{ "type": "Feature", "properties": { "address": "828 FITZWATER ST", "year": 2015.0, "permitdescription": "ADDITION PERMIT" }, "geometry": { "type": "Point", "coordinates": [ -75.157107618699072, 39.940508434699453 ] } },
{ "type": "Feature", "properties": { "address": "709 S MILDRED ST", "year": 2008.0, "permitdescription": "ADDITION PERMIT" }, "geometry": { "type": "Point", "coordinates": [ -75.156126242394507, 39.941289958737812 ] } },
{ "type": "Feature", "properties": { "address": "908 S ALDER ST", "year": 2013.0, "permitdescription": "ADDITION PERMIT" }, "geometry": { "type": "Point", "coordinates": [ -75.159963326845272, 39.938907371708808 ] } },
{ "type": "Feature", "properties": { "address": "705 S HUTCHINSON ST", "year": 2010.0, "permitdescription": "ADDITION PERMIT" }, "geometry": { "type": "Point", "coordinates": [ -75.158140401241241, 39.940667527614885 ] } },
{ "type": "Feature", "properties": { "address": "752 S 8TH ST", "year": 2009.0, "permitdescription": "ADDITION PERMIT" }, "geometry": { "type": "Point", "coordinates": [ -75.15621067106386, 39.940122913002106 ] } },
{ "type": "Feature", "properties": { "address": "1020 MONTROSE ST", "year": 2013.0, "permitdescription": "ADDITION PERMIT" }, "geometry": { "type": "Point", "coordinates": [ -75.160251264851055, 39.938507260435472 ] } },
{ "type": "Feature", "properties": { "address": "937 HALL ST", "year": 2009.0, "permitdescription": "ADDITION PERMIT" }, "geometry": { "type": "Point", "coordinates": [ -75.159106565547475, 39.938300216749838 ] } },
{ "type": "Feature", "properties": { "address": "736-38 S 8TH ST", "year": 2011.0, "permitdescription": "ADDITION PERMIT" }, "geometry": { "type": "Point", "coordinates": [ -75.15613665824641, 39.940477161617139 ] } },
{ "type": "Feature", "properties": { "address": "764 S 8TH ST", "year": 2010.0, "permitdescription": "ADDITION PERMIT" }, "geometry": { "type": "Point", "coordinates": [ -75.156236730123396, 39.939875008710914 ] } },
{ "type": "Feature", "properties": { "address": "614 S 4TH ST", "year": 2013.0, "permitdescription": "ADDITION PERMIT" }, "geometry": { "type": "Point", "coordinates": [ -75.149489547517362, 39.941241273141337 ] } },
{ "type": "Feature", "properties": { "address": "610 CHRISTIAN ST", "year": 2015.0, "permitdescription": "ADDITION PERMIT" }, "geometry": { "type": "Point", "coordinates": [ -75.153767247730073, 39.937665079776323 ] } },
{ "type": "Feature", "properties": { "address": "718 S RANDOLPH ST", "year": 2012.0, "permitdescription": "ADDITION PERMIT" }, "geometry": { "type": "Point", "coordinates": [ -75.15213077007968, 39.940368251787248 ] } },
{ "type": "Feature", "properties": { "address": "602 CLYMER ST", "year": 2009.0, "permitdescription": "ADDITION PERMIT" }, "geometry": { "type": "Point", "coordinates": [ -75.153165060881008, 39.939677499791514 ] } },
{ "type": "Feature", "properties": { "address": "722-24 E PASSYUNK AVE", "year": 2015.0, "permitdescription": "ADDITION PERMIT" }, "geometry": { "type": "Point", "coordinates": [ -75.151788330730369, 39.939788613269435 ] } },
{ "type": "Feature", "properties": { "address": "517 FITZWATER ST", "year": 2014.0, "permitdescription": "ADDITION PERMIT" }, "geometry": { "type": "Point", "coordinates": [ -75.152159759064517, 39.940080867245577 ] } },
{ "type": "Feature", "properties": { "address": "757 S 5TH ST", "year": 2012.0, "permitdescription": "ADDITION PERMIT" }, "geometry": { "type": "Point", "coordinates": [ -75.151213443161609, 39.938848328397192 ] } },
{ "type": "Feature", "properties": { "address": "740 S 4TH ST", "year": 2013.0, "permitdescription": "ADDITION PERMIT" }, "geometry": { "type": "Point", "coordinates": [ -75.149979771277955, 39.939500841586593 ] } },
{ "type": "Feature", "properties": { "address": "252 MONROE ST", "year": 2008.0, "permitdescription": "ADDITION PERMIT" }, "geometry": { "type": "Point", "coordinates": [ -75.147872902994578, 39.939521187434721 ] } },
{ "type": "Feature", "properties": { "address": "804 S 3RD ST", "year": 2012.0, "permitdescription": "ADDITION PERMIT" }, "geometry": { "type": "Point", "coordinates": [ -75.148652293070185, 39.937757011466402 ] } },
{ "type": "Feature", "properties": { "address": "729 S 3RD ST", "year": 2008.0, "permitdescription": "ADDITION PERMIT" }, "geometry": { "type": "Point", "coordinates": [ -75.147780772515262, 39.939798574884747 ] } },
{ "type": "Feature", "properties": { "address": "231 FITZWATER ST", "year": 2009.0, "permitdescription": "ADDITION PERMIT" }, "geometry": { "type": "Point", "coordinates": [ -75.147325972137438, 39.938974083428008 ] } },
{ "type": "Feature", "properties": { "address": "739 S 2ND ST", "year": 2012.0, "permitdescription": "ADDITION PERMIT" }, "geometry": { "type": "Point", "coordinates": [ -75.145874017219768, 39.939027311695547 ] } },
{ "type": "Feature", "properties": { "address": "702 S FRONT ST", "year": 2008.0, "permitdescription": "ADDITION PERMIT" }, "geometry": { "type": "Point", "coordinates": [ -75.144506882295232, 39.939978918753241 ] } },
{ "type": "Feature", "properties": { "address": "1143R COBBS CREEK PKWY", "year": 2010.0, "permitdescription": "ADDITION PERMIT" }, "geometry": { "type": "Point", "coordinates": [ -75.237603246874556, 39.944327127455281 ] } },
{ "type": "Feature", "properties": { "address": "837 S ALLISON ST", "year": 2009.0, "permitdescription": "ADDITION PERMIT" }, "geometry": { "type": "Point", "coordinates": [ -75.234761692868204, 39.947491354663256 ] } },
{ "type": "Feature", "properties": { "address": "5201 WHITBY AVE", "year": 2010.0, "permitdescription": "ADDITION PERMIT" }, "geometry": { "type": "Point", "coordinates": [ -75.227300633963026, 39.947290815097858 ] } },
{ "type": "Feature", "properties": { "address": "913 S SAINT BERNARD ST", "year": 2012.0, "permitdescription": "ADDITION PERMIT" }, "geometry": { "type": "Point", "coordinates": [ -75.219160413316615, 39.945628292060761 ] } },
{ "type": "Feature", "properties": { "address": "817 S 51ST ST", "year": 2009.0, "permitdescription": "ADDITION PERMIT" }, "geometry": { "type": "Point", "coordinates": [ -75.223479104741472, 39.946534490652148 ] } },
{ "type": "Feature", "properties": { "address": "826 S 51ST ST", "year": 2009.0, "permitdescription": "ADDITION PERMIT" }, "geometry": { "type": "Point", "coordinates": [ -75.223703541730586, 39.946002115322415 ] } },
{ "type": "Feature", "properties": { "address": "919 S SAINT BERNARD ST", "year": 2012.0, "permitdescription": "ADDITION PERMIT" }, "geometry": { "type": "Point", "coordinates": [ -75.218985472908003, 39.945479756651039 ] } },
{ "type": "Feature", "properties": { "address": "1343 S MARKOE ST", "year": 2008.0, "permitdescription": "ADDITION PERMIT" }, "geometry": { "type": "Point", "coordinates": [ -75.209123888919308, 39.943342937843113 ] } },
{ "type": "Feature", "properties": { "address": "2716 SOUTH ST", "year": 2015.0, "permitdescription": "ADDITION PERMIT" }, "geometry": { "type": "Point", "coordinates": [ -75.186888770914649, 39.945301299635148 ] } },
{ "type": "Feature", "properties": { "address": "2538 WEBSTER ST", "year": 2012.0, "permitdescription": "ADDITION PERMIT" }, "geometry": { "type": "Point", "coordinates": [ -75.185916210574106, 39.9428286810356 ] } },
{ "type": "Feature", "properties": { "address": "2407 GRAYS FERRY AVE", "year": 2015.0, "permitdescription": "ADDITION PERMIT" }, "geometry": { "type": "Point", "coordinates": [ -75.182640919078679, 39.94322168359075 ] } },
{ "type": "Feature", "properties": { "address": "2138 CATHARINE ST", "year": 2008.0, "permitdescription": "ADDITION PERMIT" }, "geometry": { "type": "Point", "coordinates": [ -75.178838261025476, 39.942227117938302 ] } },
{ "type": "Feature", "properties": { "address": "2229 PEMBERTON ST", "year": 2011.0, "permitdescription": "ADDITION PERMIT" }, "geometry": { "type": "Point", "coordinates": [ -75.179768426949977, 39.944142877038864 ] } },
{ "type": "Feature", "properties": { "address": "2316 GRAYS FERRY AVE", "year": 2013.0, "permitdescription": "ADDITION PERMIT" }, "geometry": { "type": "Point", "coordinates": [ -75.180408655917986, 39.94499244862449 ] } },
{ "type": "Feature", "properties": { "address": "2245 PEMBERTON ST", "year": 2008.0, "permitdescription": "ADDITION PERMIT" }, "geometry": { "type": "Point", "coordinates": [ -75.180210605472794, 39.944199558517347 ] } },
{ "type": "Feature", "properties": { "address": "2200 SAINT ALBANS ST", "year": 2013.0, "permitdescription": "ADDITION PERMIT" }, "geometry": { "type": "Point", "coordinates": [ -75.179265876860399, 39.942804227529855 ] } },
{ "type": "Feature", "properties": { "address": "2140 CATHARINE ST", "year": 2015.0, "permitdescription": "ADDITION PERMIT" }, "geometry": { "type": "Point", "coordinates": [ -75.178894615863527, 39.942234650725872 ] } },
{ "type": "Feature", "properties": { "address": "2137 KATER ST", "year": 2011.0, "permitdescription": "ADDITION PERMIT" }, "geometry": { "type": "Point", "coordinates": [ -75.178210831756346, 39.944870327955471 ] } },
{ "type": "Feature", "properties": { "address": "2311 CATHARINE ST", "year": 2015.0, "permitdescription": "ADDITION PERMIT" }, "geometry": { "type": "Point", "coordinates": [ -75.181218898471371, 39.942824801230017 ] } },
{ "type": "Feature", "properties": { "address": "2209 NAUDAIN ST", "year": 2015.0, "permitdescription": "ADDITION PERMIT" }, "geometry": { "type": "Point", "coordinates": [ -75.178928695166178, 39.94599189899003 ] } },
{ "type": "Feature", "properties": { "address": "2246 CATHARINE ST", "year": 2008.0, "permitdescription": "ADDITION PERMIT" }, "geometry": { "type": "Point", "coordinates": [ -75.180662528816256, 39.942443549226468 ] } },
{ "type": "Feature", "properties": { "address": "2054 KATER ST", "year": 2013.0, "permitdescription": "ADDITION PERMIT" }, "geometry": { "type": "Point", "coordinates": [ -75.176922219895701, 39.944490830019312 ] } },
{ "type": "Feature", "properties": { "address": "706 S 18TH ST", "year": 2013.0, "permitdescription": "ADDITION PERMIT" }, "geometry": { "type": "Point", "coordinates": [ -75.172365254574601, 39.94338359817425 ] } },
{ "type": "Feature", "properties": { "address": "1932 KATER ST", "year": 2008.0, "permitdescription": "ADDITION PERMIT" }, "geometry": { "type": "Point", "coordinates": [ -75.174811789379447, 39.944240824787613 ] } },
{ "type": "Feature", "properties": { "address": "413 S 19TH ST", "year": 2009.0, "permitdescription": "ADDITION PERMIT" }, "geometry": { "type": "Point", "coordinates": [ -75.172985788753195, 39.946080671597663 ] } },
{ "type": "Feature", "properties": { "address": "2027 KATER ST", "year": 2013.0, "permitdescription": "ADDITION PERMIT" }, "geometry": { "type": "Point", "coordinates": [ -75.176018539999717, 39.944594592075291 ] } },
{ "type": "Feature", "properties": { "address": "2116 NAUDAIN ST", "year": 2009.0, "permitdescription": "ADDITION PERMIT" }, "geometry": { "type": "Point", "coordinates": [ -75.177540640769195, 39.945562196063278 ] } },
{ "type": "Feature", "properties": { "address": "1913 KATER ST", "year": 2015.0, "permitdescription": "ADDITION PERMIT" }, "geometry": { "type": "Point", "coordinates": [ -75.174042821755236, 39.944357384551004 ] } },
{ "type": "Feature", "properties": { "address": "2111 BAINBRIDGE ST", "year": 2011.0, "permitdescription": "ADDITION PERMIT" }, "geometry": { "type": "Point", "coordinates": [ -75.177545393072265, 39.944416284158031 ] } },
{ "type": "Feature", "properties": { "address": "2103 FITZWATER ST", "year": 2010.0, "permitdescription": "ADDITION PERMIT" }, "geometry": { "type": "Point", "coordinates": [ -75.17768967359595, 39.943465922522513 ] } },
{ "type": "Feature", "properties": { "address": "2033 KATER ST", "year": 2013.0, "permitdescription": "ADDITION PERMIT" }, "geometry": { "type": "Point", "coordinates": [ -75.176188042824364, 39.944615833557883 ] } },
{ "type": "Feature", "properties": { "address": "2103-05 CLYMER ST", "year": 2011.0, "permitdescription": "ADDITION PERMIT" }, "geometry": { "type": "Point", "coordinates": [ -75.177759028037528, 39.94297423439869 ] } },
{ "type": "Feature", "properties": { "address": "2013 BAINBRIDGE ST", "year": 2012.0, "permitdescription": "ADDITION PERMIT" }, "geometry": { "type": "Point", "coordinates": [ -75.175829387133106, 39.944189748517104 ] } },
{ "type": "Feature", "properties": { "address": "1915 KATER ST", "year": 2013.0, "permitdescription": "ADDITION PERMIT" }, "geometry": { "type": "Point", "coordinates": [ -75.174099870832663, 39.944364145147993 ] } },
{ "type": "Feature", "properties": { "address": "761 DORRANCE ST", "year": 2012.0, "permitdescription": "ADDITION PERMIT" }, "geometry": { "type": "Point", "coordinates": [ -75.173292287583976, 39.942020261594138 ] } },
{ "type": "Feature", "properties": { "address": "1943 KATER ST", "year": 2010.0, "permitdescription": "ADDITION PERMIT" }, "geometry": { "type": "Point", "coordinates": [ -75.174893542859209, 39.944462736108186 ] } },
{ "type": "Feature", "properties": { "address": "2023 PEMBERTON ST", "year": 2010.0, "permitdescription": "ADDITION PERMIT" }, "geometry": { "type": "Point", "coordinates": [ -75.176045927765728, 39.943677206223221 ] } },
{ "type": "Feature", "properties": { "address": "747 S 20TH ST", "year": 2008.0, "permitdescription": "ADDITION PERMIT" }, "geometry": { "type": "Point", "coordinates": [ -75.175322181779933, 39.942699316425369 ] } },
{ "type": "Feature", "properties": { "address": "2114 NAUDAIN ST", "year": 2012.0, "permitdescription": "ADDITION PERMIT" }, "geometry": { "type": "Point", "coordinates": [ -75.177483426382651, 39.945555338478371 ] } },
{ "type": "Feature", "properties": { "address": "1614 KATER ST", "year": 2015.0, "permitdescription": "ADDITION PERMIT" }, "geometry": { "type": "Point", "coordinates": [ -75.169534178901699, 39.943597604388771 ] } },
{ "type": "Feature", "properties": { "address": "1513 SOUTH ST", "year": 2010.0, "permitdescription": "ADDITION PERMIT" }, "geometry": { "type": "Point", "coordinates": [ -75.167646562042549, 39.944063617999845 ] } },
{ "type": "Feature", "properties": { "address": "1643 FITZWATER ST", "year": 2011.0, "permitdescription": "ADDITION PERMIT" }, "geometry": { "type": "Point", "coordinates": [ -75.170587207080999, 39.942544478905091 ] } },
{ "type": "Feature", "properties": { "address": "1616 BAINBRIDGE ST", "year": 2008.0, "permitdescription": "ADDITION PERMIT" }, "geometry": { "type": "Point", "coordinates": [ -75.169554930522679, 39.943118017731429 ] } },
{ "type": "Feature", "properties": { "address": "724 S 15TH ST", "year": 2014.0, "permitdescription": "ADDITION PERMIT" }, "geometry": { "type": "Point", "coordinates": [ -75.167748232848382, 39.94240596052051 ] } },
{ "type": "Feature", "properties": { "address": "1605 SOUTH ST", "year": 2009.0, "permitdescription": "ADDITION PERMIT" }, "geometry": { "type": "Point", "coordinates": [ -75.168967588217271, 39.944180797476875 ] } },
{ "type": "Feature", "properties": { "address": "711 S 17TH ST", "year": 2011.0, "permitdescription": "ADDITION PERMIT" }, "geometry": { "type": "Point", "coordinates": [ -75.170307917216931, 39.94303262577526 ] } },
{ "type": "Feature", "properties": { "address": "1634 KATER ST", "year": 2015.0, "permitdescription": "ADDITION PERMIT" }, "geometry": { "type": "Point", "coordinates": [ -75.170042364193336, 39.943641985431725 ] } },
{ "type": "Feature", "properties": { "address": "740 S 17TH ST", "year": 2015.0, "permitdescription": "ADDITION PERMIT" }, "geometry": { "type": "Point", "coordinates": [ -75.171645043603675, 39.942020221764452 ] } },
{ "type": "Feature", "properties": { "address": "714 S HICKS ST", "year": 2014.0, "permitdescription": "ADDITION PERMIT" }, "geometry": { "type": "Point", "coordinates": [ -75.168044434462843, 39.942673610645699 ] } },
{ "type": "Feature", "properties": { "address": "1317-21 RODMAN ST", "year": 2013.0, "permitdescription": "ADDITION PERMIT" }, "geometry": { "type": "Point", "coordinates": [ -75.163921613533702, 39.944010922490506 ] } },
{ "type": "Feature", "properties": { "address": "423 S CARLISLE ST", "year": 2011.0, "permitdescription": "ADDITION PERMIT" }, "geometry": { "type": "Point", "coordinates": [ -75.166055805060481, 39.945000278888315 ] } },
{ "type": "Feature", "properties": { "address": "1317-21 RODMAN ST", "year": 2012.0, "permitdescription": "ADDITION PERMIT" }, "geometry": { "type": "Point", "coordinates": [ -75.163921613533702, 39.944010922490506 ] } },
{ "type": "Feature", "properties": { "address": "1126 RODMAN ST", "year": 2009.0, "permitdescription": "ADDITION PERMIT" }, "geometry": { "type": "Point", "coordinates": [ -75.161054942743718, 39.943523683926145 ] } },
{ "type": "Feature", "properties": { "address": "1206-08 SOUTH ST", "year": 2010.0, "permitdescription": "ADDITION PERMIT" }, "geometry": { "type": "Point", "coordinates": [ -75.162146264983591, 39.943057478406338 ] } },
{ "type": "Feature", "properties": { "address": "423 S CARLISLE ST", "year": 2010.0, "permitdescription": "ADDITION PERMIT" }, "geometry": { "type": "Point", "coordinates": [ -75.166055805060481, 39.945000278888315 ] } },
{ "type": "Feature", "properties": { "address": "1315 PINE ST", "year": 2015.0, "permitdescription": "ADDITION PERMIT" }, "geometry": { "type": "Point", "coordinates": [ -75.163433349340394, 39.945500264025874 ] } },
{ "type": "Feature", "properties": { "address": "1342 LOMBARD ST", "year": 2015.0, "permitdescription": "ADDITION PERMIT" }, "geometry": { "type": "Point", "coordinates": [ -75.164725209442906, 39.944441239196834 ] } },
{ "type": "Feature", "properties": { "address": "404-06 S ISEMINGER ST", "year": 2012.0, "permitdescription": "ADDITION PERMIT" }, "geometry": { "type": "Point", "coordinates": [ -75.162697791705469, 39.944745127269506 ] } },
{ "type": "Feature", "properties": { "address": "933 BAINBRIDGE ST", "year": 2012.0, "permitdescription": "ADDITION PERMIT" }, "geometry": { "type": "Point", "coordinates": [ -75.158432589009323, 39.942030693955275 ] } },
{ "type": "Feature", "properties": { "address": "822 ADDISON ST", "year": 2015.0, "permitdescription": "ADDITION PERMIT" }, "geometry": { "type": "Point", "coordinates": [ -75.156034774776643, 39.943771397668762 ] } },
{ "type": "Feature", "properties": { "address": "906 SPRUCE ST", "year": 2010.0, "permitdescription": "ADDITION PERMIT" }, "geometry": { "type": "Point", "coordinates": [ -75.156801539397108, 39.94567380310324 ] } },
{ "type": "Feature", "properties": { "address": "518 PINE ST", "year": 2015.0, "permitdescription": "ADDITION PERMIT" }, "geometry": { "type": "Point", "coordinates": [ -75.151165351418101, 39.943578683267248 ] } },
{ "type": "Feature", "properties": { "address": "522 DELANCEY ST", "year": 2008.0, "permitdescription": "ADDITION PERMIT" }, "geometry": { "type": "Point", "coordinates": [ -75.15115405065518, 39.944244093373008 ] } },
{ "type": "Feature", "properties": { "address": "541 PINE ST", "year": 2012.0, "permitdescription": "ADDITION PERMIT" }, "geometry": { "type": "Point", "coordinates": [ -75.151776730607381, 39.944065406110823 ] } },
{ "type": "Feature", "properties": { "address": "640 SOUTH ST", "year": 2012.0, "permitdescription": "ADDITION PERMIT" }, "geometry": { "type": "Point", "coordinates": [ -75.153516276681003, 39.941992535961624 ] } },
{ "type": "Feature", "properties": { "address": "512 SPRUCE ST", "year": 2011.0, "permitdescription": "ADDITION PERMIT" }, "geometry": { "type": "Point", "coordinates": [ -75.150608123550086, 39.944957780947654 ] } },
{ "type": "Feature", "properties": { "address": "500 SPRUCE ST", "year": 2013.0, "permitdescription": "ADDITION PERMIT" }, "geometry": { "type": "Point", "coordinates": [ -75.150194940120358, 39.944984472951994 ] } },
{ "type": "Feature", "properties": { "address": "266 S 3RD ST", "year": 2011.0, "permitdescription": "ADDITION PERMIT" }, "geometry": { "type": "Point", "coordinates": [ -75.147104655796468, 39.945126092533251 ] } },
{ "type": "Feature", "properties": { "address": "312 S FRONT ST", "year": 2013.0, "permitdescription": "ADDITION PERMIT" }, "geometry": { "type": "Point", "coordinates": [ -75.143670858230294, 39.943733394508378 ] } },
{ "type": "Feature", "properties": { "address": "415-17 S 3RD ST", "year": 2015.0, "permitdescription": "ADDITION PERMIT" }, "geometry": { "type": "Point", "coordinates": [ -75.147145221513455, 39.942743533464153 ] } },
{ "type": "Feature", "properties": { "address": "311 SPRUCE ST", "year": 2014.0, "permitdescription": "ADDITION PERMIT" }, "geometry": { "type": "Point", "coordinates": [ -75.147343037466641, 39.945025759748205 ] } },
{ "type": "Feature", "properties": { "address": "518 S 3RD ST", "year": 2014.0, "permitdescription": "ADDITION PERMIT" }, "geometry": { "type": "Point", "coordinates": [ -75.14770139190172, 39.941894599480754 ] } },
{ "type": "Feature", "properties": { "address": "341 PINE ST", "year": 2011.0, "permitdescription": "ADDITION PERMIT" }, "geometry": { "type": "Point", "coordinates": [ -75.148574957333963, 39.943615648892681 ] } },
{ "type": "Feature", "properties": { "address": "121 PINE ST", "year": 2010.0, "permitdescription": "ADDITION PERMIT" }, "geometry": { "type": "Point", "coordinates": [ -75.144493544982211, 39.943181596335862 ] } },
{ "type": "Feature", "properties": { "address": "6135 WALTON AVE", "year": 2011.0, "permitdescription": "ADDITION PERMIT" }, "geometry": { "type": "Point", "coordinates": [ -75.24617427611733, 39.952333441033943 ] } },
{ "type": "Feature", "properties": { "address": "508 S 48TH ST", "year": 2010.0, "permitdescription": "ADDITION PERMIT" }, "geometry": { "type": "Point", "coordinates": [ -75.219047248768803, 39.950778513897404 ] } },
{ "type": "Feature", "properties": { "address": "4728 BALTIMORE AVE", "year": 2009.0, "permitdescription": "ADDITION PERMIT" }, "geometry": { "type": "Point", "coordinates": [ -75.217902372904049, 39.948319865080329 ] } },
{ "type": "Feature", "properties": { "address": "623 S 42ND ST", "year": 2013.0, "permitdescription": "ADDITION PERMIT" }, "geometry": { "type": "Point", "coordinates": [ -75.206734683053327, 39.947683147098864 ] } },
{ "type": "Feature", "properties": { "address": "3800 SPRUCE ST", "year": 2014.0, "permitdescription": "ADDITION PERMIT" }, "geometry": { "type": "Point", "coordinates": [ -75.200096133984786, 39.950752188258278 ] } },
{ "type": "Feature", "properties": { "address": "3400 CIVIC CENTER BLVD", "year": 2013.0, "permitdescription": "ADDITION PERMIT" }, "geometry": { "type": "Point", "coordinates": [ -75.192526982418826, 39.947593504514131 ] } },
{ "type": "Feature", "properties": { "address": "3400 CIVIC CENTER BLVD", "year": 2015.0, "permitdescription": "ADDITION PERMIT" }, "geometry": { "type": "Point", "coordinates": [ -75.192526982418826, 39.947593504514131 ] } },
{ "type": "Feature", "properties": { "address": "3400 CIVIC CENTER BLVD", "year": 2012.0, "permitdescription": "ADDITION PERMIT" }, "geometry": { "type": "Point", "coordinates": [ -75.192526982418826, 39.947593504514131 ] } },
{ "type": "Feature", "properties": { "address": "1 CONVENTION AVE", "year": 2015.0, "permitdescription": "ADDITION PERMIT" }, "geometry": { "type": "Point", "coordinates": [ -75.19139332291509, 39.948933074444973 ] } },
{ "type": "Feature", "properties": { "address": "215 S BONSALL ST", "year": 2015.0, "permitdescription": "ADDITION PERMIT" }, "geometry": { "type": "Point", "coordinates": [ -75.179017610723122, 39.95047731104799 ] } },
{ "type": "Feature", "properties": { "address": "2319 LOCUST ST", "year": 2015.0, "permitdescription": "ADDITION PERMIT" }, "geometry": { "type": "Point", "coordinates": [ -75.179327783972298, 39.950179197177789 ] } },
{ "type": "Feature", "properties": { "address": "2425 LOMBARD ST", "year": 2009.0, "permitdescription": "ADDITION PERMIT" }, "geometry": { "type": "Point", "coordinates": [ -75.181295250065844, 39.946806864123644 ] } },
{ "type": "Feature", "properties": { "address": "2309 LOMBARD ST", "year": 2008.0, "permitdescription": "ADDITION PERMIT" }, "geometry": { "type": "Point", "coordinates": [ -75.17981885986049, 39.94662938495641 ] } },
{ "type": "Feature", "properties": { "address": "2006 WALNUT ST", "year": 2013.0, "permitdescription": "ADDITION PERMIT" }, "geometry": { "type": "Point", "coordinates": [ -75.174244443878806, 39.950314246657797 ] } },
{ "type": "Feature", "properties": { "address": "2106 LOCUST ST", "year": 2015.0, "permitdescription": "ADDITION PERMIT" }, "geometry": { "type": "Point", "coordinates": [ -75.176316919191748, 39.949547013248342 ] } },
{ "type": "Feature", "properties": { "address": "1936 SPRUCE ST", "year": 2011.0, "permitdescription": "ADDITION PERMIT" }, "geometry": { "type": "Point", "coordinates": [ -75.174261911292433, 39.947944262407987 ] } },
{ "type": "Feature", "properties": { "address": "1955 LOCUST ST", "year": 2013.0, "permitdescription": "ADDITION PERMIT" }, "geometry": { "type": "Point", "coordinates": [ -75.173844560318045, 39.949555828751805 ] } },
{ "type": "Feature", "properties": { "address": "2000-02 DELANCEY PL", "year": 2011.0, "permitdescription": "ADDITION PERMIT" }, "geometry": { "type": "Point", "coordinates": [ -75.174697336469535, 39.947244795773933 ] } },
{ "type": "Feature", "properties": { "address": "2131 SAINT JAMES ST", "year": 2011.0, "permitdescription": "ADDITION PERMIT" }, "geometry": { "type": "Point", "coordinates": [ -75.177039105438141, 39.950281542956354 ] } },
{ "type": "Feature", "properties": { "address": "269 S VAN PELT ST", "year": 2014.0, "permitdescription": "ADDITION PERMIT" }, "geometry": { "type": "Point", "coordinates": [ -75.176815882041055, 39.948960456416671 ] } },
{ "type": "Feature", "properties": { "address": "1805-09 WALNUT ST", "year": 2008.0, "permitdescription": "ADDITION PERMIT" }, "geometry": { "type": "Point", "coordinates": [ -75.170981105657503, 39.950457328819958 ] } },
{ "type": "Feature", "properties": { "address": "1803 PINE ST", "year": 2009.0, "permitdescription": "ADDITION PERMIT" }, "geometry": { "type": "Point", "coordinates": [ -75.171661950632753, 39.946590372414221 ] } },
{ "type": "Feature", "properties": { "address": "1507 LOCUST ST", "year": 2013.0, "permitdescription": "ADDITION PERMIT" }, "geometry": { "type": "Point", "coordinates": [ -75.166555651006846, 39.948671807684441 ] } },
{ "type": "Feature", "properties": { "address": "1527 WALNUT ST", "year": 2015.0, "permitdescription": "ADDITION PERMIT" }, "geometry": { "type": "Point", "coordinates": [ -75.167241577199206, 39.949948223444117 ] } },
{ "type": "Feature", "properties": { "address": "1805 DELANCEY PL", "year": 2012.0, "permitdescription": "ADDITION PERMIT" }, "geometry": { "type": "Point", "coordinates": [ -75.171580587624348, 39.947223589399101 ] } },
{ "type": "Feature", "properties": { "address": "1805 PINE ST", "year": 2009.0, "permitdescription": "ADDITION PERMIT" }, "geometry": { "type": "Point", "coordinates": [ -75.171739375050947, 39.946599677405047 ] } },
{ "type": "Feature", "properties": { "address": "259-61 S 17TH ST", "year": 2011.0, "permitdescription": "ADDITION PERMIT" }, "geometry": { "type": "Point", "coordinates": [ -75.169210917594398, 39.948002312802842 ] } },
{ "type": "Feature", "properties": { "address": "1810 DELANCEY PL", "year": 2015.0, "permitdescription": "ADDITION PERMIT" }, "geometry": { "type": "Point", "coordinates": [ -75.171870186328903, 39.946914134654001 ] } },
{ "type": "Feature", "properties": { "address": "1800 DELANCEY PL", "year": 2014.0, "permitdescription": "ADDITION PERMIT" }, "geometry": { "type": "Point", "coordinates": [ -75.17151826565464, 39.94686986500993 ] } },
{ "type": "Feature", "properties": { "address": "1311 SPRUCE ST", "year": 2012.0, "permitdescription": "ADDITION PERMIT" }, "geometry": { "type": "Point", "coordinates": [ -75.163138243715125, 39.947077673897056 ] } },
{ "type": "Feature", "properties": { "address": "1206 WALNUT ST", "year": 2012.0, "permitdescription": "ADDITION PERMIT" }, "geometry": { "type": "Point", "coordinates": [ -75.160976827942562, 39.948710965574442 ] } },
{ "type": "Feature", "properties": { "address": "932 IRVING ST", "year": 2013.0, "permitdescription": "ADDITION PERMIT" }, "geometry": { "type": "Point", "coordinates": [ -75.157269076107852, 39.946507167867004 ] } },
{ "type": "Feature", "properties": { "address": "1112-28 CHESTNUT ST", "year": 2014.0, "permitdescription": "ADDITION PERMIT" }, "geometry": { "type": "Point", "coordinates": [ -75.159723214801303, 39.94999294089763 ] } },
{ "type": "Feature", "properties": { "address": "1112 LOCUST ST", "year": 2009.0, "permitdescription": "ADDITION PERMIT" }, "geometry": { "type": "Point", "coordinates": [ -75.160158386326273, 39.947539346600919 ] } },
{ "type": "Feature", "properties": { "address": "1111-13 WALNUT ST", "year": 2015.0, "permitdescription": "ADDITION PERMIT" }, "geometry": { "type": "Point", "coordinates": [ -75.159627024781614, 39.949032118109479 ] } },
{ "type": "Feature", "properties": { "address": "1118-28 CHESTNUT ST", "year": 2014.0, "permitdescription": "ADDITION PERMIT" }, "geometry": { "type": "Point", "coordinates": [ -75.159723214801303, 39.94999294089763 ] } },
{ "type": "Feature", "properties": { "address": "1040 IRVING ST", "year": 2011.0, "permitdescription": "ADDITION PERMIT" }, "geometry": { "type": "Point", "coordinates": [ -75.159122722229824, 39.946838615946938 ] } },
{ "type": "Feature", "properties": { "address": "305 CHESTNUT ST", "year": 2012.0, "permitdescription": "ADDITION PERMIT" }, "geometry": { "type": "Point", "coordinates": [ -75.146344973877973, 39.949145488844529 ] } },
{ "type": "Feature", "properties": { "address": "6151 DELANCEY ST", "year": 2012.0, "permitdescription": "ADDITION PERMIT" }, "geometry": { "type": "Point", "coordinates": [ -75.245419079704789, 39.956580354572672 ] } },
{ "type": "Feature", "properties": { "address": "244 S 46TH ST", "year": 2015.0, "permitdescription": "ADDITION PERMIT" }, "geometry": { "type": "Point", "coordinates": [ -75.214218215210934, 39.954232114049802 ] } },
{ "type": "Feature", "properties": { "address": "320 S 44TH ST", "year": 2013.0, "permitdescription": "ADDITION PERMIT" }, "geometry": { "type": "Point", "coordinates": [ -75.211009419239147, 39.952140089651593 ] } },
{ "type": "Feature", "properties": { "address": "218 SAINT MARKS SQ", "year": 2008.0, "permitdescription": "ADDITION PERMIT" }, "geometry": { "type": "Point", "coordinates": [ -75.207991114704285, 39.953857498904775 ] } },
{ "type": "Feature", "properties": { "address": "4317 SANSOM ST", "year": 2013.0, "permitdescription": "ADDITION PERMIT" }, "geometry": { "type": "Point", "coordinates": [ -75.2091874980065, 39.955906394246554 ] } },
{ "type": "Feature", "properties": { "address": "124 S 39TH ST", "year": 2008.0, "permitdescription": "ADDITION PERMIT" }, "geometry": { "type": "Point", "coordinates": [ -75.200437720457245, 39.954489038800489 ] } },
{ "type": "Feature", "properties": { "address": "3801-51 LOCUST WALK", "year": 2010.0, "permitdescription": "ADDITION PERMIT" }, "geometry": { "type": "Point", "coordinates": [ -75.199722193419163, 39.95282718159541 ] } },
{ "type": "Feature", "properties": { "address": "3805 LOCUST WALK", "year": 2014.0, "permitdescription": "ADDITION PERMIT" }, "geometry": { "type": "Point", "coordinates": [ -75.199722193419163, 39.95282718159541 ] } },
{ "type": "Feature", "properties": { "address": "3600 LOCUST WALK", "year": 2010.0, "permitdescription": "ADDITION PERMIT" }, "geometry": { "type": "Point", "coordinates": [ -75.196284658846224, 39.951744174483721 ] } },
{ "type": "Feature", "properties": { "address": "3600 LOCUST WALK", "year": 2012.0, "permitdescription": "ADDITION PERMIT" }, "geometry": { "type": "Point", "coordinates": [ -75.196284658846224, 39.951744174483721 ] } },
{ "type": "Feature", "properties": { "address": "3200 WALNUT ST", "year": 2009.0, "permitdescription": "ADDITION PERMIT" }, "geometry": { "type": "Point", "coordinates": [ -75.189001806316597, 39.952025603671039 ] } },
{ "type": "Feature", "properties": { "address": "20-40 S 33RD ST", "year": 2010.0, "permitdescription": "ADDITION PERMIT" }, "geometry": { "type": "Point", "coordinates": [ -75.19001811734266, 39.954521785957255 ] } },
{ "type": "Feature", "properties": { "address": "3406-46 WALNUT ST", "year": 2012.0, "permitdescription": "ADDITION PERMIT" }, "geometry": { "type": "Point", "coordinates": [ -75.193915017692262, 39.952647677012394 ] } },
{ "type": "Feature", "properties": { "address": "3200-60 CHESTNUT ST", "year": 2012.0, "permitdescription": "ADDITION PERMIT" }, "geometry": { "type": "Point", "coordinates": [ -75.188678371123828, 39.953504560839384 ] } },
{ "type": "Feature", "properties": { "address": "2402-14 MARKET ST", "year": 2015.0, "permitdescription": "ADDITION PERMIT" }, "geometry": { "type": "Point", "coordinates": [ -75.179374332921952, 39.953579015505227 ] } },
{ "type": "Feature", "properties": { "address": "135 S 24TH ST", "year": 2008.0, "permitdescription": "ADDITION PERMIT" }, "geometry": { "type": "Point", "coordinates": [ -75.179203320555828, 39.951688066011478 ] } },
{ "type": "Feature", "properties": { "address": "2101 MARKET ST", "year": 2012.0, "permitdescription": "ADDITION PERMIT" }, "geometry": { "type": "Point", "coordinates": [ -75.175362975651311, 39.954352354276196 ] } },
{ "type": "Feature", "properties": { "address": "2201 CHESTNUT ST", "year": 2012.0, "permitdescription": "ADDITION PERMIT" }, "geometry": { "type": "Point", "coordinates": [ -75.177181335986134, 39.952744801000662 ] } },
{ "type": "Feature", "properties": { "address": "2034 CHESTNUT ST", "year": 2015.0, "permitdescription": "ADDITION PERMIT" }, "geometry": { "type": "Point", "coordinates": [ -75.174920099602119, 39.951986196673104 ] } },
{ "type": "Feature", "properties": { "address": "1025 ARCH ST", "year": 2013.0, "permitdescription": "ADDITION PERMIT" }, "geometry": { "type": "Point", "coordinates": [ -75.157359536128311, 39.95402277109627 ] } },
{ "type": "Feature", "properties": { "address": "170 N INDEPENDENCE MALL W", "year": 2009.0, "permitdescription": "ADDITION PERMIT" }, "geometry": { "type": "Point", "coordinates": [ -75.150484910557296, 39.954082942636482 ] } },
{ "type": "Feature", "properties": { "address": "17-19 N 2ND ST", "year": 2014.0, "permitdescription": "ADDITION PERMIT" }, "geometry": { "type": "Point", "coordinates": [ -75.143414901225825, 39.950539485125312 ] } },
{ "type": "Feature", "properties": { "address": "47 N 2ND ST", "year": 2008.0, "permitdescription": "ADDITION PERMIT" }, "geometry": { "type": "Point", "coordinates": [ -75.143188497583949, 39.9512182618544 ] } },
{ "type": "Feature", "properties": { "address": "46 N FRONT ST", "year": 2012.0, "permitdescription": "ADDITION PERMIT" }, "geometry": { "type": "Point", "coordinates": [ -75.142007783374396, 39.951150723768173 ] } },
{ "type": "Feature", "properties": { "address": "134 ELFRETHS ALY", "year": 2008.0, "permitdescription": "ADDITION PERMIT" }, "geometry": { "type": "Point", "coordinates": [ -75.14264290408785, 39.952709258325683 ] } },
{ "type": "Feature", "properties": { "address": "4800-18 CHESTNUT ST", "year": 2011.0, "permitdescription": "ADDITION PERMIT" }, "geometry": { "type": "Point", "coordinates": [ -75.21774420026297, 39.957138672916784 ] } },
{ "type": "Feature", "properties": { "address": "4212 POWELTON AVE", "year": 2014.0, "permitdescription": "ADDITION PERMIT" }, "geometry": { "type": "Point", "coordinates": [ -75.206702068372877, 39.958516893512446 ] } },
{ "type": "Feature", "properties": { "address": "4301-05 MARKET ST", "year": 2009.0, "permitdescription": "ADDITION PERMIT" }, "geometry": { "type": "Point", "coordinates": [ -75.208306628607019, 39.958251872764372 ] } },
{ "type": "Feature", "properties": { "address": "31 N PRESTON ST", "year": 2014.0, "permitdescription": "ADDITION PERMIT" }, "geometry": { "type": "Point", "coordinates": [ -75.203255505622394, 39.958521326175223 ] } },
{ "type": "Feature", "properties": { "address": "18 N PRESTON ST", "year": 2013.0, "permitdescription": "ADDITION PERMIT" }, "geometry": { "type": "Point", "coordinates": [ -75.203702611567081, 39.958195985039239 ] } },
{ "type": "Feature", "properties": { "address": "4145-47 CHESTNUT ST", "year": 2012.0, "permitdescription": "ADDITION PERMIT" }, "geometry": { "type": "Point", "coordinates": [ -75.206064615065955, 39.956557733304308 ] } },
{ "type": "Feature", "properties": { "address": "3800 POWELTON AVE", "year": 2008.0, "permitdescription": "ADDITION PERMIT" }, "geometry": { "type": "Point", "coordinates": [ -75.199234203476422, 39.958499436105953 ] } },
{ "type": "Feature", "properties": { "address": "3711 MARKET ST", "year": 2013.0, "permitdescription": "ADDITION PERMIT" }, "geometry": { "type": "Point", "coordinates": [ -75.197018007006974, 39.956955325253283 ] } },
{ "type": "Feature", "properties": { "address": "3800 POWELTON AVE", "year": 2012.0, "permitdescription": "ADDITION PERMIT" }, "geometry": { "type": "Point", "coordinates": [ -75.199234203476422, 39.958499436105953 ] } },
{ "type": "Feature", "properties": { "address": "3401 FILBERT ST", "year": 2011.0, "permitdescription": "ADDITION PERMIT" }, "geometry": { "type": "Point", "coordinates": [ -75.193195034363555, 39.957142272467401 ] } },
{ "type": "Feature", "properties": { "address": "201 N 34TH ST", "year": 2009.0, "permitdescription": "ADDITION PERMIT" }, "geometry": { "type": "Point", "coordinates": [ -75.190397429366058, 39.959124151284783 ] } },
{ "type": "Feature", "properties": { "address": "3300 RACE ST", "year": 2011.0, "permitdescription": "ADDITION PERMIT" }, "geometry": { "type": "Point", "coordinates": [ -75.189669102356291, 39.958529570067682 ] } },
{ "type": "Feature", "properties": { "address": "2228 SUMMER ST", "year": 2014.0, "permitdescription": "ADDITION PERMIT" }, "geometry": { "type": "Point", "coordinates": [ -75.176614479148611, 39.958975249728603 ] } },
{ "type": "Feature", "properties": { "address": "123 N LAMBERT ST", "year": 2012.0, "permitdescription": "ADDITION PERMIT" }, "geometry": { "type": "Point", "coordinates": [ -75.173479571730709, 39.957227509770753 ] } },
{ "type": "Feature", "properties": { "address": "2120-22 CHERRY ST", "year": 2013.0, "permitdescription": "ADDITION PERMIT" }, "geometry": { "type": "Point", "coordinates": [ -75.175200022151074, 39.956661823152722 ] } },
{ "type": "Feature", "properties": { "address": "1319-39 VINE ST", "year": 2010.0, "permitdescription": "ADDITION PERMIT" }, "geometry": { "type": "Point", "coordinates": [ -75.161061092666714, 39.958106334887788 ] } },
{ "type": "Feature", "properties": { "address": "200S N BROAD ST", "year": 2013.0, "permitdescription": "ADDITION PERMIT" }, "geometry": { "type": "Point", "coordinates": [ -75.16282712638106, 39.956299474363846 ] } },
{ "type": "Feature", "properties": { "address": "212-18 N 11TH ST", "year": 2010.0, "permitdescription": "ADDITION PERMIT" }, "geometry": { "type": "Point", "coordinates": [ -75.157612027636787, 39.956094274706921 ] } },
{ "type": "Feature", "properties": { "address": "1211 RACE ST", "year": 2015.0, "permitdescription": "ADDITION PERMIT" }, "geometry": { "type": "Point", "coordinates": [ -75.159477172398255, 39.95601554576006 ] } },
{ "type": "Feature", "properties": { "address": "214-16 N 10TH ST", "year": 2009.0, "permitdescription": "ADDITION PERMIT" }, "geometry": { "type": "Point", "coordinates": [ -75.155939437690705, 39.955924915645916 ] } },
{ "type": "Feature", "properties": { "address": "1241 VINE ST", "year": 2013.0, "permitdescription": "ADDITION PERMIT" }, "geometry": { "type": "Point", "coordinates": [ -75.159923432407325, 39.957944361035985 ] } },
{ "type": "Feature", "properties": { "address": "211-17 N CAMAC ST", "year": 2010.0, "permitdescription": "ADDITION PERMIT" }, "geometry": { "type": "Point", "coordinates": [ -75.159520691664682, 39.956313181781368 ] } },
{ "type": "Feature", "properties": { "address": "123 N 63RD ST", "year": 2010.0, "permitdescription": "ADDITION PERMIT" }, "geometry": { "type": "Point", "coordinates": [ -75.2458749202859, 39.965096978170756 ] } },
{ "type": "Feature", "properties": { "address": "41 N 58TH ST", "year": 2008.0, "permitdescription": "ADDITION PERMIT" }, "geometry": { "type": "Point", "coordinates": [ -75.236328714060448, 39.962595050991993 ] } },
{ "type": "Feature", "properties": { "address": "4215 HAVERFORD AVE", "year": 2012.0, "permitdescription": "ADDITION PERMIT" }, "geometry": { "type": "Point", "coordinates": [ -75.207543402941781, 39.962689766997002 ] } },
{ "type": "Feature", "properties": { "address": "3939-41 LANCASTER AVE", "year": 2013.0, "permitdescription": "ADDITION PERMIT" }, "geometry": { "type": "Point", "coordinates": [ -75.201006883333804, 39.962774986008917 ] } },
{ "type": "Feature", "properties": { "address": "4049 SPRING GARDEN ST", "year": 2014.0, "permitdescription": "ADDITION PERMIT" }, "geometry": { "type": "Point", "coordinates": [ -75.204153475720702, 39.961673336827864 ] } },
{ "type": "Feature", "properties": { "address": "3627 HAMILTON ST", "year": 2014.0, "permitdescription": "ADDITION PERMIT" }, "geometry": { "type": "Point", "coordinates": [ -75.195393734243865, 39.961975885656955 ] } },
{ "type": "Feature", "properties": { "address": "513 N 38TH ST", "year": 2015.0, "permitdescription": "ADDITION PERMIT" }, "geometry": { "type": "Point", "coordinates": [ -75.197084534418437, 39.962683049785973 ] } },
{ "type": "Feature", "properties": { "address": "3509 SPRING GARDEN ST", "year": 2013.0, "permitdescription": "ADDITION PERMIT" }, "geometry": { "type": "Point", "coordinates": [ -75.19362930776002, 39.962992426810061 ] } },
{ "type": "Feature", "properties": { "address": "624 N 35TH ST", "year": 2014.0, "permitdescription": "ADDITION PERMIT" }, "geometry": { "type": "Point", "coordinates": [ -75.193446354342214, 39.964581797301477 ] } },
{ "type": "Feature", "properties": { "address": "3308 BARING ST", "year": 2015.0, "permitdescription": "ADDITION PERMIT" }, "geometry": { "type": "Point", "coordinates": [ -75.190390293245727, 39.961196513473922 ] } },
{ "type": "Feature", "properties": { "address": "1600 SPRING GARDEN ST", "year": 2010.0, "permitdescription": "ADDITION PERMIT" }, "geometry": { "type": "Point", "coordinates": [ -75.165776444837476, 39.961494452469715 ] } },
{ "type": "Feature", "properties": { "address": "607 N 10TH ST", "year": 2014.0, "permitdescription": "ADDITION PERMIT" }, "geometry": { "type": "Point", "coordinates": [ -75.154089934966322, 39.962854019033593 ] } },
{ "type": "Feature", "properties": { "address": "439-47 N 13TH ST", "year": 2012.0, "permitdescription": "ADDITION PERMIT" }, "geometry": { "type": "Point", "coordinates": [ -75.159318376138557, 39.960806113569333 ] } },
{ "type": "Feature", "properties": { "address": "1232-38 RIDGE AVE", "year": 2015.0, "permitdescription": "ADDITION PERMIT" }, "geometry": { "type": "Point", "coordinates": [ -75.158585712254521, 39.962759088694732 ] } },
{ "type": "Feature", "properties": { "address": "1123 GREEN ST", "year": 2010.0, "permitdescription": "ADDITION PERMIT" }, "geometry": { "type": "Point", "coordinates": [ -75.156841339812573, 39.963069246111573 ] } },
{ "type": "Feature", "properties": { "address": "1204 GREEN ST", "year": 2009.0, "permitdescription": "ADDITION PERMIT" }, "geometry": { "type": "Point", "coordinates": [ -75.157923735151087, 39.962868293314322 ] } },
{ "type": "Feature", "properties": { "address": "1137 SPRING GARDEN ST", "year": 2010.0, "permitdescription": "ADDITION PERMIT" }, "geometry": { "type": "Point", "coordinates": [ -75.157444975123155, 39.962016595655498 ] } },
{ "type": "Feature", "properties": { "address": "720 N 40TH ST", "year": 2015.0, "permitdescription": "ADDITION PERMIT" }, "geometry": { "type": "Point", "coordinates": [ -75.203121040299123, 39.966050216385014 ] } },
{ "type": "Feature", "properties": { "address": "3825 MELON ST", "year": 2010.0, "permitdescription": "ADDITION PERMIT" }, "geometry": { "type": "Point", "coordinates": [ -75.198493664552529, 39.965207199768699 ] } },
{ "type": "Feature", "properties": { "address": "3226 WALLACE ST", "year": 2015.0, "permitdescription": "ADDITION PERMIT" }, "geometry": { "type": "Point", "coordinates": [ -75.189816856625114, 39.965257649894191 ] } },
{ "type": "Feature", "properties": { "address": "3423 MOUNT VERNON ST", "year": 2014.0, "permitdescription": "ADDITION PERMIT" },